longitude,latitude,name,state,iata
-94.89125602,48.82738863,Lake of the Woods,Minnesota,27077
-118.5202943,48.37515755,Ferry,Washington,53019
-117.8473355,48.3751571,Stevens,Washington,53065
-119.7434085,48.47126468,Okanogan,Washington,53047
-117.2689825,48.39233357,Pend Oreille,Washington,53051
-116.4231053,48.66760116,Boundary,Idaho,16021
-115.4537068,48.37566313,Lincoln,Montana,30053
-114.1084247,48.29654482,Flathead,Montana,30029
-112.9623785,48.64730053,Glacier,Montana,30035
-111.7346753,48.69025043,Toole,Montana,30101
-111.0189475,48.60968974,Liberty,Montana,30051
-110.1274353,48.55035237,Hill,Montana,30041
-104.5459272,48.78873023,Sheridan,Montana,30091
-103.4987947,48.86434826,Divide,North Dakota,38023
-102.5475062,48.76550447,Burke,North Dakota,38013
-101.7578446,48.76420877,Renville,North Dakota,38075
-100.8426414,48.85913625,Bottineau,North Dakota,38009
-99.86018532,48.86153005,Rolette,North Dakota,38079
-99.23094034,48.63351761,Towner,North Dakota,38095
-98.4712226,48.86038553,Cavalier,North Dakota,38019
-97.54440303,48.77235653,Pembina,North Dakota,38067
-96.77555884,48.7723559,Kittson,Minnesota,27069
-95.75111465,48.8013057,Roseau,Minnesota,27135
-108.9712847,48.3393821,Blaine,Montana,30005
-107.8972836,48.26048025,Phillips,Montana,30071
-106.5378746,48.35135116,Valley,Montana,30105
-105.5330705,48.74560783,Daniels,Montana,30019
-121.7214237,48.82698866,Whatcom,Washington,53073
-116.5455932,48.35230729,Bonner,Idaho,16017
-101.4654433,48.19765184,Ward,North Dakota,38101
-93.76035313,48.21878819,Koochiching,Minnesota,27071
-121.7648966,48.47304379,Skagit,Washington,53057
-103.4384086,48.26220011,Williams,North Dakota,38105
-100.6262161,48.19500681,McHenry,North Dakota,38049
-92.42871145,47.64495162,St. Louis,Minnesota,27137
-123.0880277,48.54559906,San Juan,Washington,53055
-104.9319431,48.30443561,Roosevelt,Montana,30085
-102.3721355,48.25281056,Mountrail,North Dakota,38061
-96.36574384,48.34374119,Marshall,Minnesota,27089
-98.75345463,48.28246853,Ramsey,North Dakota,38071
-97.72944723,48.37046763,Walsh,North Dakota,38099
-94.84395197,47.96054982,Beltrami,Minnesota,27007
-100.0447604,48.19493874,Pierce,North Dakota,38069
-120.5457832,47.89864116,Chelan,Washington,53007
-112.4603077,48.23434322,Pondera,Montana,30073
-124.1766216,48.12988301,Clallam,Washington,53009
-99.48983093,48.12097744,Benson,North Dakota,38005
-110.4817439,47.86609437,Chouteau,Montana,30015
-121.692958,48.03600801,Snohomish,Washington,53061
-122.6234275,48.13762824,Island,Washington,53029
-115.1617527,47.66771677,Sanders,Montana,30089
-91.40938122,47.71977811,Lake,Minnesota,27075
-98.20418415,47.96643657,Nelson,North Dakota,38063
-97.45652498,47.93640776,Grand Forks,North Dakota,38035
-96.66882336,47.83691546,Polk,Minnesota,27119
-96.04570159,48.09565356,Pennington,Minnesota,27113
-119.7449235,47.68425506,Douglas,Washington,53017
-103.3460928,47.75356614,McKenzie,North Dakota,38053
-123.6908905,47.84220074,Jefferson,Washington,53031
-104.6449621,47.74657954,Richland,Montana,30083
-112.1764037,47.84944289,Teton,Montana,30099
-105.8234566,47.65762743,McCone,Montana,30055
-115.9974714,47.48238878,Shoshone,Idaho,16079
-117.4323538,47.57572777,Spokane,Washington,53063
-114.1341719,47.58595668,Lake,Montana,30047
-95.3744862,47.58633892,Clearwater,Minnesota,27029
-116.6839725,47.64871486,Kootenai,Idaho,16055
-107.1147814,47.42321693,Garfield,Montana,30033
-96.09997712,47.8950473,Red Lake,Minnesota,27125
-119.4925277,47.28628452,Grant,Washington,53025
-118.4010274,47.52824858,Lincoln,Washington,53043
-112.5397697,47.18047352,Lewis and Clark,Montana,30049
-122.6818819,47.67882884,Kitsap,Washington,53035
-93.56509295,47.45129837,Itasca,Minnesota,27061
-100.3562336,47.49828195,Sheridan,North Dakota,38083
-99.65279856,47.63221582,Wells,North Dakota,38103
-101.0406386,47.5047243,McLean,North Dakota,38055
-98.91394231,47.76413867,Eddy,North Dakota,38027
-102.6582551,47.45851146,Dunn,North Dakota,38025
-109.3607809,47.2491871,Fergus,Montana,30027
-104.9246721,47.33921042,Dawson,Montana,30021
-121.8656628,47.42302466,King,Washington,53033
-111.41919,47.27944206,Cascade,Montana,30013
-98.2465138,47.46115306,Griggs,North Dakota,38039
-97.7323146,47.50158145,Steele,North Dakota,38091
-97.16929027,47.44914566,Traill,North Dakota,38097
-123.1757091,47.32389019,Mason,Washington,53045
-113.953507,47.10339991,Missoula,Montana,30063
-108.3455345,47.16700487,Petroleum,Montana,30069
-113.0540018,47.0002001,Powell,Montana,30077
-120.6563348,47.15513716,Kittitas,Washington,53037
-98.88788312,47.46010492,Foster,North Dakota,38031
-101.7134588,47.27582613,Mercer,North Dakota,38057
-123.8368649,47.12307082,Grays Harbor,Washington,53027
-96.45682647,47.32842278,Norman,Minnesota,27107
-95.81350691,47.32792022,Mahnomen,Minnesota,27087
-114.8763129,47.09465547,Mineral,Montana,30061
-94.21728727,46.88915514,Cass,Minnesota,27021
-68.30274346,46.48401893,Aroostook,Maine,23003
-110.2066276,47.00770258,Judith Basin,Montana,30045
-94.91811641,47.06411433,Hubbard,Minnesota,27057
-116.6851626,47.18914083,Benewah,Idaho,16009
-104.1909766,47.0183259,Wibaux,Montana,30109
-103.8265406,46.81265172,Golden Valley,North Dakota,38033
-103.4171111,46.80721553,Billings,North Dakota,38007
-98.94793009,46.80929022,Stutsman,North Dakota,38093
-99.78598234,46.98361264,Kidder,North Dakota,38043
-100.5003994,46.96554659,Burleigh,North Dakota,38015
-122.0378936,47.02302922,Pierce,Washington,53053
-101.3526176,47.12753691,Oliver,North Dakota,38065
-118.4725264,47.08386793,Adams,Washington,53001
-117.5176286,46.83340675,Whitman,Washington,53075
-98.06343553,46.80654155,Barnes,North Dakota,38003
-97.23690582,46.94223267,Cass,North Dakota,38017
-105.5016449,46.86417469,Prairie,Montana,30079
-95.67129526,46.88972216,Becker,Minnesota,27005
-96.47119556,46.89506519,Clay,Minnesota,27027
-122.8653243,46.95087469,Thurston,Washington,53067
-116.6856825,46.77233255,Latah,Idaho,16057
-110.8348143,46.63435911,Meagher,Montana,30059
-120.6487465,46.56375398,Yakima,Washington,53077
-93.41620377,46.67824096,Aitkin,Minnesota,27001
-102.66523,46.85228395,Stark,North Dakota,38089
-101.0789325,46.63075253,Morton,North Dakota,38059
-91.24282197,46.43216399,Bayfield,Wisconsin,55007
-115.750914,46.55569669,Clearwater,Idaho,16035
-105.5361962,46.3956898,Custer,Montana,30017
-106.569807,46.00300122,Rosebud,Montana,30087
-113.419607,46.38086709,Granite,Montana,30039
-94.97271796,46.5130025,Wadena,Minnesota,27159
-94.07089736,46.44484998,Crow Wing,Minnesota,27035
-123.6403618,46.54731071,Pacific,Washington,53049
-122.3887835,46.57925708,Lewis,Washington,53041
-111.4557063,46.30062222,Broadwater,Montana,30007
-92.67144505,46.53815378,Carlton,Minnesota,27017
-109.1330088,46.40852509,Golden Valley,Montana,30037
-91.92160951,46.53142856,Douglas,Wisconsin,55031
-108.3183803,46.42234947,Musselshell,Montana,30065
-109.8518247,46.35653382,Wheatland,Montana,30107
-118.9448658,46.45337271,Franklin,Washington,53021
-119.5701281,46.27561649,Benton,Washington,53005
-101.5525114,46.32581514,Grant,North Dakota,38037
-95.72140501,46.49816565,Otter Tail,Minnesota,27111
-117.5490894,46.35986721,Garfield,Washington,53023
-104.4660778,46.29617463,Fallon,Montana,30025
-115.5692352,45.87891761,Idaho,Idaho,16049
-114.1297262,46.05769049,Ravalli,Montana,30081
-90.73647561,46.43216413,Ashland,Wisconsin,55003
-99.47943161,46.45937768,Logan,North Dakota,38047
-100.2427331,46.30806024,Emmons,North Dakota,38029
-98.54061469,46.4562808,LaMoure,North Dakota,38045
-103.4865592,46.40934828,Slope,North Dakota,38087
-102.4905816,46.45676767,Hettinger,North Dakota,38041
-97.66155668,46.45573556,Ransom,North Dakota,38073
-96.94201112,46.30907687,Richland,North Dakota,38077
-96.44020676,46.30963884,Wilkin,Minnesota,27167
-116.8282755,46.23566608,Nez Perce,Idaho,16069
-117.9257276,46.31565935,Columbia,Washington,53013
-118.5047898,46.3039556,Walla Walla,Washington,53071
-90.23436923,46.2744212,Iron,Wisconsin,55051
-70.1332079,45.55936118,Somerset,Maine,23025
-69.27233506,45.79298965,Piscataquis,Maine,23021
-112.1500089,46.15196,Jefferson,Montana,30043
-108.3604129,45.97233712,Yellowstone,Montana,30111
-107.2423448,46.17922093,Treasure,Montana,30103
-116.3574765,46.23566692,Lewis,Idaho,16061
-117.1957465,46.22343195,Asotin,Washington,53003
-100.9028963,46.18222656,Sioux,North Dakota,38085
-92.67063495,46.11491588,Pine,Minnesota,27115
-68.43342389,45.51919113,Penobscot,Maine,23019
-121.9272111,45.90930861,Skamania,Washington,53059
-122.6295427,46.13310896,Cowlitz,Washington,53015
-123.33813,46.26684364,Wahkiakum,Washington,53069
-94.89669715,46.0180164,Todd,Minnesota,27153
-94.22650215,46.06712367,Morrison,Minnesota,27097
-99.4426978,46.11328755,McIntosh,North Dakota,38051
-98.51016462,46.11043368,Dickey,North Dakota,38021
-97.63550518,46.14110748,Sargent,North Dakota,38081
-103.5213122,46.10962928,Bowman,North Dakota,38011
-102.4987785,46.12932539,Adams,North Dakota,38001
-113.0961954,46.00831682,Deer Lodge,Montana,30023
-93.6412036,45.89880196,Mille Lacs,Minnesota,27095
-123.6606159,45.97712318,Clatsop,Oregon,41007
-109.8922686,45.69567157,Sweet Grass,Montana,30097
-111.2046044,45.26153206,Gallatin,Montana,30031
-110.5113776,45.68150913,Park,Montana,30067
-123.1020122,45.9855373,Columbia,Oregon,41009
-112.6867165,45.90633018,Silver Bow,Montana,30093
-91.78738224,45.81051782,Washburn,Wisconsin,55129
-91.10909858,45.80994188,Sawyer,Wisconsin,55113
-92.36003912,45.90333148,Burnett,Wisconsin,55013
-93.32712008,45.85631039,Kanabec,Minnesota,27065
-104.5127949,45.58267761,Carter,Montana,30011
-109.2132884,45.64691315,Stillwater,Montana,30095
-96.01359931,45.93313253,Grant,Minnesota,27051
-95.45497974,45.93278312,Douglas,Minnesota,27041
-122.5111883,45.78045549,Clark,Washington,53011
-120.7688613,45.82141845,Klickitat,Washington,53039
-107.4584519,45.50381496,Big Horn,Montana,30003
-96.43967408,45.78325201,Traverse,Minnesota,27155
-118.6287513,45.48471786,Umatilla,Oregon,41059
-117.1163358,45.53929793,Wallowa,Oregon,41063
-90.3584779,45.76698871,Price,Wisconsin,55099
-100.0303713,45.7567666,Campbell,South Dakota,46021
-103.5008528,45.5479641,Harding,South Dakota,46063
-99.22606906,45.76892821,McPherson,South Dakota,46089
-102.4770581,45.70832596,Perkins,South Dakota,46105
-101.1538494,45.71326796,Corson,South Dakota,46031
-98.35219109,45.59277019,Brown,South Dakota,46013
-113.0147818,45.14214336,Beaverhead,Montana,30001
-97.60543014,45.76011476,Marshall,South Dakota,46091
-97.03722571,45.62990411,Roberts,South Dakota,46109
-119.5721048,45.37733635,Morrow,Oregon,41049
-118.0451211,45.3894836,Union,Oregon,41061
-111.909581,45.21655212,Madison,Montana,30057
-93.98302884,45.69732407,Benton,Minnesota,27009
-120.2406515,45.4398202,Gilliam,Oregon,41021
-105.6171779,45.39711528,Powder River,Montana,30075
-94.64210719,45.53902214,Stearns,Minnesota,27145
-123.7141716,45.35839509,Tillamook,Oregon,41057
-123.0877918,45.54125834,Washington,Oregon,41067
-95.43927553,45.49919536,Pope,Minnesota,27121
-95.99454508,45.49919582,Stevens,Minnesota,27149
-93.3269834,45.64782725,Isanti,Minnesota,27059
-92.86553374,45.50864845,Chisago,Minnesota,27025
-120.6757289,45.40850495,Sherman,Oregon,41055
-92.4329906,45.5086472,Polk,Wisconsin,55095
-122.6653022,45.57583776,Multnomah,Oregon,41051
-121.6712214,45.49406602,Hood River,Oregon,41027
-121.2492861,45.26221375,Wasco,Oregon,41065
-114.09038,44.9549965,Lemhi,Idaho,16059
-67.55388798,45.04064322,Washington,Maine,23029
-70.46672204,45.06361562,Franklin,Maine,23007
-91.85054925,45.46583762,Barron,Wisconsin,55005
-91.10885862,45.50822829,Rusk,Wisconsin,55107
-109.1458839,45.3125505,Carbon,Montana,30009
-100.0142383,45.43059349,Walworth,South Dakota,46129
-99.21933271,45.42457675,Edmunds,South Dakota,46045
-97.60540271,45.43040656,Day,South Dakota,46037
-96.3465857,45.38582733,Big Stone,Minnesota,27011
-93.75792003,45.4006472,Sherburne,Minnesota,27141
-101.6609293,44.9973752,Ziebach,South Dakota,46137
-100.9111562,45.0924987,Dewey,South Dakota,46041
-122.241896,45.16540128,Clackamas,Oregon,41005
-93.9444523,45.20759912,Wright,Minnesota,27171
-123.2326224,45.23672939,Yamhill,Oregon,41071
-93.23892512,45.22305336,Anoka,Minnesota,27003
-95.00348383,45.02448256,Kandiyohi,Minnesota,27067
-95.69220059,45.32656386,Swift,Minnesota,27151
-90.48358836,45.20881968,Taylor,Wisconsin,55119
-70.65770588,44.55857069,Oxford,Maine,23017
-96.67137933,45.06350355,Grant,South Dakota,46051
-94.51001171,45.13290196,Meeker,Minnesota,27093
-71.32598137,44.70978617,Coos,New Hampshire,33007
-92.88195153,45.043865,Washington,Minnesota,27163
-91.2860594,45.07724968,Chippewa,Wisconsin,55017
-122.8103904,44.97954728,Marion,Oregon,41047
-96.19275591,45.05909556,Lac qui Parle,Minnesota,27073
-116.5400549,44.85580553,Adams,Idaho,16003
-99.94740474,45.06728627,Potter,South Dakota,46107
-99.1495516,45.07184485,Faulk,South Dakota,46049
-93.48949204,45.00693777,Hennepin,Minnesota,27053
-98.35474266,45.02409943,Spink,South Dakota,46115
-92.46040954,45.04386432,St. Croix,Wisconsin,55109
-91.89587264,44.9892364,Dunn,Wisconsin,55033
-103.5125677,44.80259409,Butte,South Dakota,46019
-115.6512892,44.67203548,Valley,Idaho,16085
-97.74184139,44.97950031,Clark,South Dakota,46025
-97.19341483,45.06350406,Codington,South Dakota,46029
-95.53211012,44.9700001,Chippewa,Minnesota,27023
-93.09609436,44.99291697,Ramsey,Minnesota,27123
-117.7961672,44.66404824,Baker,Oregon,41001
-123.4327224,44.88009019,Polk,Oregon,41053
-120.0192133,44.65203596,Wheeler,Oregon,41069
-102.7826953,44.56055528,Meade,South Dakota,46093
-123.8294283,44.65197249,Lincoln,Oregon,41041
-90.61712613,44.76986842,Clark,Wisconsin,55019
-71.73689094,44.69515408,Essex,Vermont,50009
-73.28805467,44.75600186,Grand Isle,Vermont,50013
-72.87732394,44.81136439,Franklin,Vermont,50011
-72.25627833,44.77469192,Orleans,Vermont,50019
-73.68322915,44.71219576,Clinton,New York,36019
-109.4223541,44.40294143,Park,Wyoming,56029
-104.5726301,44.68072864,Crook,Wyoming,56011
-107.989126,44.57389219,Big Horn,Wyoming,56003
-105.5528029,44.35620333,Campbell,Wyoming,56005
-106.9040167,44.77947252,Sheridan,Wyoming,56033
-74.2643986,44.56217565,Franklin,New York,36033
-119.0127325,44.48528336,Grant,Oregon,41023
-94.25475154,44.80688431,McLeod,Minnesota,27085
-93.76914404,44.8508201,Carver,Minnesota,27019
-96.67161142,44.71406012,Deuel,South Dakota,46039
-93.02971682,44.67318332,Dakota,Minnesota,27037
-95.95086904,44.74437392,Yellow Medicine,Minnesota,27173
-100.1515832,44.71197631,Sully,South Dakota,46119
-99.48147793,44.3847635,Hyde,South Dakota,46069
-99.00194929,44.373854,Hand,South Dakota,46059
-94.96686546,44.67773408,Renville,Minnesota,27129
-92.42347847,44.69669785,Pierce,Wisconsin,55093
-114.2851123,44.2104424,Custer,Idaho,16037
-91.28840499,44.7680585,Eau Claire,Wisconsin,55035
-116.8601842,44.48702865,Washington,Idaho,16087
-121.0911122,44.61917214,Jefferson,Oregon,41031
-93.50524323,44.68696006,Scott,Minnesota,27139
-97.19340493,44.67066162,Hamlin,South Dakota,46057
-72.65398663,44.60651561,Lamoille,Vermont,50015
-122.5205,44.48676183,Linn,Oregon,41043
-100.8737115,44.4803351,Stanley,South Dakota,46117
-72.1271223,44.4694153,Caledonia,Vermont,50005
-69.09300418,44.51914894,Waldo,Maine,23027
-101.5788968,44.43840009,Haakon,South Dakota,46055
-111.4156692,44.35289784,Fremont,Idaho,16043
-94.26693225,44.56975317,Sibley,Minnesota,27143
-73.05130507,44.44135057,Chittenden,Vermont,50007
-69.78609705,44.42140947,Kennebec,Maine,23011
-92.69124833,44.45471662,Goodhue,Minnesota,27049
-123.4061715,44.48676216,Benton,Oregon,41003
-95.23037468,44.39036068,Redwood,Minnesota,27127
-90.0192091,44.46473557,Wood,Wisconsin,55141
-92.08865584,44.55524034,Pepin,Wisconsin,55091
-110.5522104,43.74904081,Teton,Wyoming,56039
-98.28080526,44.37099138,Beadle,South Dakota,46005
-95.83715695,44.36995155,Lyon,Minnesota,27083
-96.26890653,44.36870229,Lincoln,Minnesota,27081
-103.8128572,44.46161104,Lawrence,South Dakota,46081
-91.72639503,44.30293028,Buffalo,Wisconsin,55011
-91.34713073,44.42106485,Trempealeau,Wisconsin,55121
-90.73827478,44.33790706,Jackson,Wisconsin,55053
-112.3191069,44.26914638,Clark,Idaho,16033
-120.3213119,44.04066821,Crook,Oregon,41013
-106.5667422,43.98961358,Johnson,Wyoming,56019
-99.91286017,44.32273605,Hughes,South Dakota,46065
-73.74464627,44.1548111,Essex,New York,36031
-93.74162436,44.36501693,Le Sueur,Minnesota,27079
-93.28642145,44.33706587,Rice,Minnesota,27131
-97.49436639,44.36787231,Kingsbury,South Dakota,46077
-96.79396236,44.36870229,Brookings,South Dakota,46011
-103.0361994,44.07109247,Pennington,South Dakota,46103
-116.2757669,44.17865589,Gem,Idaho,16045
-94.65650008,44.31392064,Brown,Minnesota,27015
-72.62393474,44.2448163,Washington,Vermont,50023
-70.18641396,44.19575936,Androscoggin,Maine,23001
-94.20187755,44.31816319,Nicollet,Minnesota,27103
-92.22861122,44.27291859,Wabasha,Minnesota,27157
-117.6228892,43.29178972,Malheur,Oregon,41045
-68.28793273,44.75411666,Hancock,Maine,23009
-71.73823961,43.96725265,Grafton,New Hampshire,33009
-121.4042074,44.00102896,Deschutes,Oregon,41017
-69.17958958,44.16963117,Knox,Maine,23013
-115.7657051,43.95989627,Boise,Idaho,16015
-69.53342959,44.08436134,Lincoln,Maine,23015
-73.09888795,44.03529595,Addison,Vermont,50001
-71.27231621,43.84466989,Carroll,New Hampshire,33003
-122.7445049,43.85857739,Lane,Oregon,41039
-94.07174327,43.97882369,Blue Earth,Minnesota,27013
-90.13561169,43.96055777,Juneau,Wisconsin,55057
-113.0931665,43.72480935,Butte,Idaho,16023
-99.8410048,43.86117948,Lyman,South Dakota,46085
-72.42711138,43.99907586,Orange,Vermont,50017
-93.59254304,44.02319299,Waseca,Minnesota,27161
-99.23173674,44.0711285,Buffalo,South Dakota,46017
-98.63361739,44.06559666,Jerauld,South Dakota,46073
-96.67434977,44.02168993,Moody,South Dakota,46101
-96.26246933,44.02312976,Pipestone,Minnesota,27117
-92.8658733,44.02277189,Dodge,Minnesota,27039
-98.09648194,44.06425251,Sanborn,South Dakota,46111
-95.76841533,44.02202453,Murray,Minnesota,27101
-95.16639654,43.97776548,Cottonwood,Minnesota,27033
-93.23095062,44.0219359,Steele,Minnesota,27147
-92.38283918,43.97842823,Olmsted,Minnesota,27109
-97.61487898,44.01976362,Miner,South Dakota,46097
-97.13268252,44.01917454,Lake,South Dakota,46079
-91.78088301,44.00991847,Winona,Minnesota,27169
-104.5709504,43.67830942,Weston,Wyoming,56045
-100.7204674,43.92783828,Jones,South Dakota,46075
-70.34465523,43.8525129,Cumberland,Maine,23005
-107.656096,43.83860478,Washakie,Wyoming,56043
-90.61286702,43.90033098,Monroe,Wisconsin,55081
-116.8315732,43.96739858,Payette,Idaho,16075
-74.49500055,43.60028768,Hamilton,New York,36041
-94.6168021,43.97770844,Watonwan,Minnesota,27165
-74.9575857,43.40890659,Herkimer,New York,36043
-91.12268589,43.89719027,La Crosse,Wisconsin,55063
-115.5225401,43.38348428,Elmore,Idaho,16039
-108.6088243,43.78424597,Hot Springs,Wyoming,56017
-112.3223416,43.83705207,Jefferson,Idaho,16051
-119.070121,43.03660177,Harney,Oregon,41025
-69.94310161,43.93953468,Sagadahoc,Maine,23023
-108.5516886,43.1158889,Fremont,Wyoming,56013
-101.6423611,43.69824911,Jackson,South Dakota,46071
-113.8681237,43.30209222,Blaine,Idaho,16013
-111.219305,43.7672371,Teton,Idaho,16081
-72.55456111,43.58644197,Windsor,Vermont,50027
-122.8882932,43.31307665,Douglas,Oregon,41019
-98.56491913,43.67220776,Aurora,South Dakota,46003
-99.11494743,43.70628363,Brule,South Dakota,46015
-111.6775734,43.81637759,Madison,Idaho,16065
-116.6352317,43.55983936,Canyon,Idaho,16027
-100.7322089,43.59185576,Mellette,South Dakota,46095
-114.8228537,43.51123576,Camas,Idaho,16025
-103.4879724,43.66696341,Custer,South Dakota,46033
-73.02560629,43.56426214,Rutland,Vermont,50021
-93.94985075,43.67368279,Faribault,Minnesota,27043
-96.79344637,43.67261031,Minnehaha,South Dakota,46099
-96.25911365,43.67322654,Rock,Minnesota,27133
-93.352877,43.67363783,Freeborn,Minnesota,27047
-95.76080123,43.67313779,Nobles,Minnesota,27105
-95.16068436,43.67295243,Jackson,Minnesota,27063
-94.55329819,43.67280112,Martin,Minnesota,27091
-91.48800621,43.63810643,Houston,Minnesota,27055
-92.75332494,43.66709589,Mower,Minnesota,27099
-92.09185963,43.66615304,Fillmore,Minnesota,27045
-98.14830739,43.67067829,Davison,South Dakota,46035
-97.78858956,43.67057031,Hanson,South Dakota,46061
-97.36955936,43.67213724,McCook,South Dakota,46087
-70.66325766,43.45416882,York,Maine,23031
-73.43394831,43.41184337,Washington,New York,36115
-116.2188748,43.51375391,Ada,Idaho,16001
-73.90308194,43.45810836,Warren,New York,36113
-99.87607696,43.26435806,Tripp,South Dakota,46123
-71.43937875,43.52503042,Belknap,New Hampshire,33001
-90.77566202,43.57851459,Vernon,Wisconsin,55123
-102.5606948,43.26616269,Shannon,South Dakota,46113
-116.2349863,42.80621807,Owyhee,Idaho,16073
-111.4299216,43.32174933,Bonneville,Idaho,16019
-112.2873819,43.18931337,Bingham,Idaho,16011
-121.8095532,42.86746176,Klamath,Oregon,41035
-120.637695,42.82213654,Lake,Oregon,41037
-124.0640488,43.16186911,Coos,Oregon,41011
-71.67892719,43.29978578,Merrimack,New Hampshire,33013
-72.23410202,43.36406595,Sullivan,New Hampshire,33019
-71.05984385,43.32658013,Strafford,New Hampshire,33017
-90.43084972,43.3167623,Richland,Wisconsin,55103
-106.7888758,42.95829751,Natrona,Wyoming,56025
-99.21445321,43.24527383,Gregory,South Dakota,46053
-104.479854,43.23842243,Niobrara,Wyoming,56027
-98.47366115,43.17015544,Charles Mix,South Dakota,46023
-97.16155215,43.33430165,Turner,South Dakota,46125
-96.7413713,43.29886586,Lincoln,South Dakota,46083
-93.26495612,43.37746124,Worth,Iowa,19195
-92.79319194,43.37734673,Mitchell,Iowa,19131
-91.34095403,43.2969907,Allamakee,Iowa,19005
-93.73920839,43.37698759,Winnebago,Iowa,19189
-91.8454615,43.27909548,Winneshiek,Iowa,19191
-105.4886524,43.04285652,Converse,Wyoming,56009
-95.63299716,43.37872281,Osceola,Iowa,19143
-95.15936937,43.37669796,Dickinson,Iowa,19059
-94.21762922,43.08283667,Kossuth,Iowa,19109
-92.31918169,43.35766113,Howard,Iowa,19089
-94.68845967,43.37527376,Emmet,Iowa,19063
-96.19605139,43.37059555,Lyon,Iowa,19119
-98.25687179,43.28576589,Douglas,South Dakota,46043
-97.75797339,43.34660328,Hutchinson,South Dakota,46067
-103.5306137,43.23921581,Fall River,South Dakota,46047
-109.9671265,42.89600547,Sublette,Wyoming,56035
-90.88466126,43.21808122,Crawford,Wisconsin,55023
-73.85224684,43.04603719,Saratoga,New York,36091
-101.6746476,43.26616221,Bennett,South Dakota,46007
-100.7249634,43.26435855,Todd,South Dakota,46121
-73.13488674,43.0280445,Bennington,Vermont,50003
-110.7973486,42.36388589,Lincoln,Wyoming,56023
-74.43186439,43.13962743,Fulton,New York,36035
-71.07843719,42.97628321,Rockingham,New Hampshire,33015
-96.16259877,43.10709092,Sioux,Iowa,19167
-72.73415763,42.98787306,Windham,Vermont,50025
-95.63459871,43.08465253,O'Brien,Iowa,19141
-93.26422472,43.06242303,Cerro Gordo,Iowa,19033
-95.1604061,43.08293935,Clay,Iowa,19041
-93.74023391,43.08246879,Hancock,Iowa,19081
-94.68838315,43.08254644,Palo Alto,Iowa,19147
-92.79287215,43.06330916,Floyd,Iowa,19067
-92.32168258,43.00091085,Chickasaw,Iowa,19037
-90.13166594,43.00414183,Iowa,Wisconsin,55049
-90.75769233,42.84277142,Grant,Wisconsin,55043
-71.72304186,42.97996626,Hillsborough,New Hampshire,33011
-114.1453695,43.01905436,Lincoln,Idaho,16063
-114.8262118,42.91636214,Gooding,Idaho,16047
-113.5573304,43.01803867,Minidoka,Idaho,16067
-72.26286575,42.9285106,Cheshire,New Hampshire,33005
-97.39982188,42.97660823,Yankton,South Dakota,46135
-97.87401184,42.95660033,Bon Homme,South Dakota,46009
-112.8115394,42.71984328,Power,Idaho,16077
-96.71377854,42.78819639,Union,South Dakota,46127
-96.98756752,42.94207841,Clay,South Dakota,46027
-91.84857903,42.77912759,Fayette,Iowa,19065
-91.34894578,42.82740278,Clayton,Iowa,19043
-74.42239732,42.92339403,Montgomery,New York,36057
-111.529415,42.71834606,Caribou,Idaho,16029
-112.146766,42.60187486,Bannock,Idaho,16005
-103.7661743,42.52358794,Sioux,Nebraska,31165
-103.1251156,42.60855416,Dawes,Nebraska,31045
-102.419574,42.60832413,Sheridan,Nebraska,31161
-122.7503693,42.58461726,Jackson,Oregon,41029
-99.72705645,42.91128461,Keya Paha,Nebraska,31103
-98.62813456,42.87703669,Boyd,Nebraska,31015
-101.1248548,42.60198406,Cherry,Nebraska,31031
-124.2101622,42.46892758,Curry,Oregon,41015
-73.47919423,42.7210264,Rensselaer,New York,36083
-74.04938007,42.8282566,Schenectady,New York,36093
-96.25097222,42.72847891,Plymouth,Iowa,19149
-95.63375825,42.73949515,Cherokee,Iowa,19035
-92.32238466,42.77701129,Bremer,Iowa,19017
-92.79293174,42.7730722,Butler,Iowa,19023
-95.1597376,42.73800543,Buena Vista,Iowa,19021
-114.5444562,42.45343722,Twin Falls,Idaho,16083
-94.68725921,42.78135675,Pocahontas,Iowa,19151
-94.21623136,42.7800597,Humboldt,Iowa,19091
-93.73905941,42.7788867,Wright,Iowa,19197
-93.26418832,42.73096374,Franklin,Iowa,19069
-74.98419862,42.60604895,Otsego,New York,36077
-98.77182365,42.59664089,Holt,Nebraska,31089
-70.97065623,42.6580073,Essex,Massachusetts,25009
-97.89281611,42.5992228,Knox,Nebraska,31107
-97.2506204,42.59979433,Cedar,Nebraska,31027
-114.2662054,42.70055498,Jerome,Idaho,16053
-74.4198258,42.60793859,Schoharie,New York,36095
-99.92748228,42.57703867,Brown,Nebraska,31017
-90.12959016,42.65947587,Lafayette,Wisconsin,55065
-73.96237342,42.63255297,Albany,New York,36001
-99.4563532,42.57112412,Rock,Nebraska,31149
-123.6418709,42.37832243,Josephine,Oregon,41033
-96.87065368,42.43473522,Dixon,Nebraska,31051
-73.18207346,42.44479793,Berkshire,Massachusetts,25003
-72.56405687,42.52146234,Franklin,Massachusetts,25011
-71.29580412,42.42797983,Middlesex,Massachusetts,25017
-71.9615717,42.35934605,Worcester,Massachusetts,25027
-90.89309935,42.48517402,Dubuque,Iowa,19061
-113.6326829,42.36515685,Cassia,Idaho,16031
-94.17396445,42.34007106,Webster,Iowa,19187
-91.37371271,42.55707552,Delaware,Iowa,19055
-91.84285419,42.46949841,Buchanan,Iowa,19019
-92.30548236,42.38216702,Black Hawk,Iowa,19013
-104.3549543,42.30682584,Goshen,Wyoming,56015
-104.9710376,42.26265517,Platte,Wyoming,56031
-111.3121563,42.29613742,Bear Lake,Idaho,16007
-96.04696671,42.3978477,Woodbury,Iowa,19193
-95.50663626,42.34300259,Ida,Iowa,19093
-95.10013184,42.34270001,Sac,Iowa,19161
-94.63818989,42.34094203,Calhoun,Iowa,19025
-93.7043782,42.33716395,Hamilton,Iowa,19079
-72.7093105,42.36838256,Hampshire,Massachusetts,25015
-93.23967246,42.33447459,Hardin,Iowa,19083
-92.7757397,42.37760395,Grundy,Iowa,19075
-96.56908912,42.3978477,Dakota,Nebraska,31043
-74.95333698,42.18178361,Delaware,New York,36025
-90.17891744,42.35036374,Jo Daviess,Illinois,17085
-73.63062514,42.25045611,Columbia,New York,36021
-112.5341581,42.25207079,Oneida,Idaho,16071
-74.13354255,42.27835089,Greene,New York,36039
-71.05839486,42.33796997,Suffolk,Massachusetts,25025
-106.7925262,41.89593571,Carbon,Wyoming,56007
-97.6010492,42.21671401,Pierce,Nebraska,31139
-103.0958641,42.25852026,Box Butte,Nebraska,31013
-98.0645638,42.25943275,Antelope,Nebraska,31003
-105.6776639,41.875308,Albany,Wyoming,56001
-111.838837,42.22121528,Franklin,Idaho,16041
-90.64129053,42.226445,Jackson,Iowa,19097
-97.09574129,42.17666455,Wayne,Nebraska,31179
-72.62767982,42.16992082,Hampden,Massachusetts,25013
-91.1326978,42.16491895,Jones,Iowa,19105
-92.06977713,42.07714446,Benton,Iowa,19011
-91.60279859,42.11923362,Linn,Iowa,19113
-92.53862334,42.03517737,Tama,Iowa,19171
-96.57157711,42.14581979,Thurston,Nebraska,31173
-108.9947412,41.62247478,Sweetwater,Wyoming,56037
-70.79527938,41.94377039,Plymouth,Massachusetts,25023
-71.18918122,42.16664938,Norfolk,Massachusetts,25021
-95.96493192,42.0386669,Monona,Iowa,19133
-95.38850087,42.03511705,Crawford,Iowa,19047
-94.86965447,42.03464653,Carroll,Iowa,19027
-94.40524516,42.03464649,Greene,Iowa,19073
-93.93744113,42.0343834,Boone,Iowa,19015
-93.00566161,42.03532998,Marshall,Iowa,19127
-93.47090102,42.03509958,Story,Iowa,19169
-74.22669503,41.89205845,Ulster,New York,36111
-96.78521736,41.88146226,Cuming,Nebraska,31039
-71.17702467,41.79254295,Bristol,Massachusetts,25005
-97.19234962,41.91651848,Stanton,Nebraska,31167
-97.59814444,41.83052485,Madison,Nebraska,31119
-101.74671,41.87027757,Grant,Nebraska,31075
-99.45081019,41.90874325,Loup,Nebraska,31115
-101.1358162,41.91048884,Hooker,Nebraska,31091
-98.98721362,41.90961681,Garfield,Nebraska,31071
-100.553469,41.9086775,Thomas,Nebraska,31171
-98.52140932,41.82546271,Wheeler,Nebraska,31183
-99.97327259,41.90859515,Blaine,Nebraska,31009
-73.72751877,41.74965839,Dutchess,New York,36027
-69.97306429,41.83105659,Barnstable,Massachusetts,25001
-96.34914129,41.88338636,Burt,Nebraska,31021
-73.25664239,41.7316602,Litchfield,Connecticut,09005
-72.73314472,41.73611178,Hartford,Connecticut,09003
-90.53810992,41.86848424,Clinton,Iowa,19045
-72.32732682,41.80986056,Tolland,Connecticut,09013
-71.97649237,41.80013736,Windham,Connecticut,09015
-74.79749227,41.72077286,Sullivan,New York,36105
-71.56584527,41.86684342,Providence,Rhode Island,44007
-111.725565,41.69822818,Cache,Utah,49005
-122.5335303,41.48729818,Siskiyou,California,06093
-102.3109039,41.58509773,Garden,Nebraska,31069
-112.9697,41.51558596,Box Elder,Utah,49003
-111.2365196,41.55867558,Rich,Utah,49033
-103.7080623,41.86924726,Scotts Bluff,Nebraska,31157
-103.0045619,41.71831547,Morrill,Nebraska,31123
-75.26360817,41.62519698,Wayne,Pennsylvania,42127
-123.8997258,41.70297139,Del Norte,California,06015
-118.1493764,41.32913611,Humboldt,Nevada,32013
-115.5191268,41.49614365,Elko,Nevada,32007
-120.7195906,41.47344669,Modoc,California,06049
-119.6540451,40.47836631,Washoe,Nevada,32031
-91.13521144,41.80993998,Cedar,Iowa,19031
-98.0543281,41.63074288,Boone,Nebraska,31011
-93.06112715,41.73244093,Jasper,Iowa,19099
-93.58620231,41.73026818,Polk,Iowa,19153
-92.5356181,41.73113711,Poweshiek,Iowa,19157
-95.84149499,41.68950378,Harrison,Iowa,19085
-94.52178953,41.73031342,Guthrie,Iowa,19077
-95.33164051,41.73181746,Shelby,Iowa,19165
-94.92743026,41.73160418,Audubon,Iowa,19009
-92.06600284,41.68324474,Iowa,Iowa,19095
-94.05565561,41.72893483,Dallas,Iowa,19049
-91.6006102,41.72365529,Johnson,Iowa,19103
-90.31244462,41.55330889,Rock Island,Illinois,17161
-90.62100767,41.62597685,Scott,Iowa,19163
-71.29436345,41.72452202,Bristol,Rhode Island,44001
-71.59238572,41.67775097,Kent,Rhode Island,44003
-97.07614776,41.59918582,Colfax,Nebraska,31037
-96.66876256,41.59310524,Dodge,Nebraska,31053
-97.53822815,41.63074286,Platte,Nebraska,31141
-101.6960656,41.56352495,Arthur,Nebraska,31005
-98.51683645,41.60638986,Greeley,Nebraska,31077
-101.0567554,41.56504053,McPherson,Nebraska,31117
-100.4797034,41.56544302,Logan,Nebraska,31113
-99.71455205,41.21765683,Custer,Nebraska,31041
-98.97957808,41.56527568,Valley,Nebraska,31175
-87.89624868,41.46572708,Will,Illinois,17197
-83.76002667,41.55200518,Lucas,Ohio,39095
-88.43496153,41.54997236,Kendall,Illinois,17093
-87.38231616,41.38554453,Lake,Indiana,18089
-87.08558043,41.45562792,Porter,Indiana,18127
-84.12494473,41.61001323,Fulton,Ohio,39051
-81.19120818,41.52994055,Geauga,Ohio,39055
-72.05541848,41.48393379,New London,Connecticut,09011
-84.58527969,41.61399336,Williams,Ohio,39171
-103.7122107,41.49863332,Banner,Nebraska,31007
-96.2605974,41.55033405,Washington,Nebraska,31177
-71.26504664,41.55244352,Newport,Rhode Island,44005
-73.32295827,41.32300208,Fairfield,Connecticut,09001
-104.6661767,41.19564857,Laramie,Wyoming,56021
-76.01067323,41.5141328,Wyoming,Pennsylvania,42131
-71.60929776,41.54399813,Washington,Rhode Island,44009
-72.52089568,41.45835731,Middlesex,Connecticut,09007
-72.91299257,41.40935685,New Haven,Connecticut,09009
-75.64477563,41.41121666,Lackawanna,Pennsylvania,42069
-88.88301303,41.21503228,La Salle,Illinois,17099
-74.33923584,41.38600903,Orange,New York,36071
-78.75870881,41.412231,Elk,Pennsylvania,42047
-81.6698192,41.46532586,Cuyahoga,Ohio,39035
-79.74315833,41.41257951,Venango,Pennsylvania,42121
-79.23804738,41.54423052,Forest,Pennsylvania,42053
-83.23914007,41.57737998,Ottawa,Ohio,39123
-78.21036161,41.44098683,Cameron,Pennsylvania,42023
-83.64191717,41.33197301,Wood,Ohio,39173
-75.02905105,41.34467934,Pike,Pennsylvania,42103
-77.06400124,41.3337611,Lycoming,Pennsylvania,42081
-91.07443955,41.5218063,Muscatine,Iowa,19139
-76.51066576,41.47539527,Sullivan,Pennsylvania,42113
-89.51871624,41.45361059,Bureau,Illinois,17011
-90.15098234,41.396317,Henry,Illinois,17073
-110.558488,41.33293082,Uinta,Wyoming,56041
-85.42822752,41.37459135,Noble,Indiana,18113
-84.99381837,41.35585873,DeKalb,Indiana,18033
-73.75383257,41.41829682,Putnam,New York,36079
-97.99480097,41.43450204,Nance,Nebraska,31125
-82.10361918,41.31435307,Lorain,Ohio,39093
-92.64414279,41.33523606,Mahaska,Iowa,19123
-95.54185286,41.32427319,Pottawattamie,Iowa,19155
-91.71425259,41.29279885,Washington,Iowa,19183
-93.10197383,41.32718503,Marion,Iowa,19125
-94.02414312,41.33159061,Madison,Iowa,19121
-93.56522681,41.32794947,Warren,Iowa,19181
-92.1808743,41.33538718,Keokuk,Iowa,19107
-94.9354124,41.33435439,Cass,Iowa,19029
-94.4786788,41.33361526,Adair,Iowa,19001
-83.12538765,41.35575805,Sandusky,Ohio,39143
-80.76257115,41.23768717,Trumbull,Ohio,39155
-80.2622538,41.32573715,Mercer,Pennsylvania,42085
-86.27064053,41.30896533,Marshall,Indiana,18099
-84.04645876,41.28940792,Henry,Ohio,39069
-77.62412244,41.2212592,Clinton,Pennsylvania,42035
-70.62659322,41.39041516,Dukes,Massachusetts,25007
-88.42724903,41.33112453,Grundy,Illinois,17063
-123.8840853,40.75445739,Humboldt,California,06023
-97.13417758,41.20942735,Butler,Nebraska,31023
-96.63227294,41.25178538,Saunders,Nebraska,31155
-82.5878394,41.3380739,Erie,Ohio,39043
-85.86328434,41.24274058,Kosciusko,Indiana,18085
-86.61500253,41.31564512,Starke,Indiana,18149
-79.43984654,41.20559584,Clarion,Pennsylvania,42031
-102.9912158,41.13100267,Cheyenne,Nebraska,31033
-84.50703621,41.35298987,Defiance,Ohio,39039
-111.8721209,41.26563537,Weber,Utah,49057
-91.29279928,41.24970016,Louisa,Iowa,19115
-75.95382112,41.15734125,Luzerne,Pennsylvania,42079
-97.5639524,41.22463833,Polk,Nebraska,31143
-96.15541604,41.2940561,Douglas,Nebraska,31055
-98.97072203,41.21765685,Sherman,Nebraska,31163
-98.51363813,41.21742808,Howard,Nebraska,31093
-100.7473193,41.21728307,Lincoln,Nebraska,31111
-98.07540249,41.13229601,Merrick,Nebraska,31121
-70.00261132,41.31835345,Nantucket,Massachusetts,25019
-101.6561993,41.13193724,Keith,Nebraska,31101
-103.7136643,41.21492029,Kimball,Nebraska,31105
-79.00117602,41.16549287,Jefferson,Pennsylvania,42065
-111.6201475,41.08281105,Morgan,Utah,49029
-123.1328029,40.65996454,Trinity,California,06105
-73.78775031,41.12158226,Westchester,New York,36119
-74.69106831,41.12648107,Sussex,New Jersey,34037
-81.52860485,41.12827906,Summit,Ohio,39153
-81.19076096,41.23768724,Portage,Ohio,39133
-90.75979238,41.20392049,Mercer,Illinois,17131
-74.0563493,41.16845727,Rockland,New York,36087
-89.32032639,41.19274124,Putnam,Illinois,17155
-76.39750112,41.01761626,Columbia,Pennsylvania,42037
-87.88928891,41.1456159,Kankakee,Illinois,17091
-85.51565243,41.11708582,Whitley,Indiana,18183
-87.10379669,41.0465042,Jasper,Indiana,18073
-82.58283879,41.15757638,Huron,Ohio,39077
-85.06743095,41.10159264,Allen,Indiana,18003
-81.92157522,41.09719187,Medina,Ohio,39103
-110.7488219,40.89265801,Summit,Utah,49043
-77.81285378,40.97152331,Centre,Pennsylvania,42027
-78.4444079,40.98620699,Clearfield,Pennsylvania,42033
-75.29088817,41.04534347,Monroe,Pennsylvania,42089
-83.12369419,41.07962364,Seneca,Ohio,39147
-84.56162805,41.07429037,Paulding,Ohio,39125
-89.81862591,41.0643415,Stark,Illinois,17175
-87.40123931,40.87770542,Newton,Indiana,18111
-102.3290957,41.13100314,Deuel,Nebraska,31049
-74.30677959,41.00458907,Passaic,New Jersey,34031
-96.09533876,41.09373537,Sarpy,Nebraska,31153
-122.0129095,40.72463255,Shasta,California,06089
-120.5256727,40.38016415,Lassen,California,06035
-76.69781819,40.89107873,Northumberland,Pennsylvania,42097
-86.21275534,41.02791206,Fulton,Indiana,18049
-79.93073393,40.93022542,Butler,Pennsylvania,42019
-79.45994801,40.85069859,Armstrong,Pennsylvania,42005
-86.70409872,41.04646729,Pulaski,Indiana,18131
-76.67360702,41.02272095,Montour,Pennsylvania,42093
-83.64411085,41.07502146,Hancock,Ohio,39063
-95.62739532,41.01882658,Mills,Iowa,19129
-84.10196003,41.07345986,Putnam,Ohio,39137
-95.16489729,41.03506872,Montgomery,Iowa,19137
-94.70838713,41.03409756,Adams,Iowa,19003
-93.79056959,41.03104488,Clarke,Iowa,19039
-92.41400331,41.03044467,Wapello,Iowa,19179
-91.95045732,41.03134783,Jefferson,Iowa,19101
-94.24991216,41.03195346,Union,Iowa,19175
-91.54519573,40.98548903,Henry,Iowa,19087
-98.02160393,40.91514742,Hamilton,Nebraska,31081
-93.33136735,41.03068897,Lucas,Iowa,19117
-92.8714893,41.0302765,Monroe,Iowa,19135
-112.0936032,40.96504397,Davis,Utah,49011
-90.21983556,40.84932246,Knox,Illinois,17095
-89.3530816,41.04094384,Marshall,Illinois,17123
-77.04565349,40.98232824,Union,Pennsylvania,42119
-75.75465513,40.92843275,Carbon,Pennsylvania,42025
-80.76177847,41.05766434,Mahoning,Ohio,39099
-80.34263303,40.95047607,Lawrence,Pennsylvania,42073
-74.02364882,40.94490151,Bergen,New Jersey,34003
-88.5900331,40.84219693,Livingston,Illinois,17105
-74.9556857,40.83285583,Warren,New Jersey,34041
-113.1041864,40.53476443,Tooele,Utah,49045
-74.56509436,40.86339657,Morris,New Jersey,34027
-91.19551802,40.90179337,Des Moines,Iowa,19057
-90.93196057,40.85669609,Henderson,Illinois,17071
-90.62088506,40.88848709,Warren,Illinois,17187
-96.14657555,40.93768307,Cass,Nebraska,31025
-82.26748988,40.89863216,Ashland,Ohio,39005
-85.79454356,40.83946051,Wabash,Indiana,18169
-97.13398085,40.87178517,Seward,Nebraska,31159
-96.67986276,40.74297347,Lancaster,Nebraska,31109
-99.06868567,40.87026237,Buffalo,Nebraska,31019
-99.81618133,40.86916627,Dawson,Nebraska,31047
-97.5913113,40.87076281,York,Nebraska,31185
-98.49778139,40.7889185,Hall,Nebraska,31079
-85.49269498,40.7995942,Huntington,Indiana,18069
-87.83022295,40.87481909,Iroquois,Illinois,17075
-86.05647961,40.79073526,Miami,Indiana,18103
-88.18604245,40.81278971,Ford,Illinois,17053
-108.1775607,40.6326384,Moffat,Colorado,08081
-104.5372193,40.4280466,Weld,Colorado,08123
-106.3173763,40.65823804,Jackson,Colorado,08057
-101.6459429,40.87060059,Perkins,Nebraska,31135
-103.1109539,40.71867207,Logan,Colorado,08075
-102.3496843,40.8706006,Sedgwick,Colorado,08115
-107.0463844,40.46875791,Routt,Colorado,08107
-105.4467107,40.6545681,Larimer,Colorado,08069
-109.6904139,40.84329817,Daggett,Utah,49009
-82.91393996,40.85044416,Crawford,Ohio,39033
-116.9990381,40.26371153,Lander,Nevada,32015
-116.2019061,40.08138907,Eureka,Nevada,32011
-82.55338379,40.75998172,Richland,Ohio,39139
-81.88255882,40.79208602,Wayne,Ohio,39169
-84.56148334,40.83516065,Van Wert,Ohio,39161
-83.3062774,40.85827565,Wyandot,Ohio,39175
-81.36030176,40.81306825,Stark,Ohio,39151
-89.77567633,40.76950558,Peoria,Illinois,17143
-75.39825563,40.76035501,Northampton,Pennsylvania,42095
-118.3639873,40.26652367,Pershing,Nevada,32027
-76.19931495,40.71075526,Schuylkill,Pennsylvania,42107
-84.93445274,40.83025338,Adams,Indiana,18001
-85.20946073,40.79959519,Wells,Indiana,18179
-89.24570639,40.77363552,Woodford,Illinois,17203
-80.80117492,40.78943795,Columbiana,Ohio,39029
-73.84528062,40.86153096,Bronx,New York,36005
-86.37714099,40.83164206,Cass,Indiana,18017
-86.92554906,40.74719307,White,Indiana,18181
-111.8924702,40.6832871,Salt Lake,Utah,49035
-84.13211006,40.74944586,Allen,Ohio,39003
-79.0737139,40.67827184,Indiana,Pennsylvania,42063
-95.63099285,40.76328871,Fremont,Iowa,19071
-95.16674037,40.82067018,Page,Iowa,19145
-94.70972529,40.81774178,Taylor,Iowa,19173
-94.25063394,40.73783648,Ringgold,Iowa,19159
-73.57007905,40.7498592,Nassau,New York,36059
-92.4164964,40.75035354,Davis,Iowa,19051
-91.95309288,40.71050435,Van Buren,Iowa,19177
-93.79009299,40.74085844,Decatur,Iowa,19053
-93.33140265,40.74255647,Wayne,Iowa,19185
-74.24755826,40.79407407,Essex,New Jersey,34013
-92.87230445,40.74604013,Appanoose,Iowa,19007
-77.10837291,40.75050812,Snyder,Pennsylvania,42109
-73.9711356,40.7676094,New York,New York,36061
-109.5124546,40.0095957,Uintah,Utah,49047
-80.3364425,40.6558865,Beaver,Pennsylvania,42007
-77.64881657,40.6017585,Mifflin,Pennsylvania,42087
-110.4323424,40.28710441,Duchesne,Utah,49013
-74.0839677,40.73591427,Hudson,New Jersey,34017
-91.54903299,40.58731822,Lee,Iowa,19111
-83.64742679,40.66316427,Hardin,Ohio,39065
-73.82077625,40.70829082,Queens,New York,36081
-96.13847467,40.68677733,Otoe,Nebraska,31131
-75.5857069,40.59964662,Lehigh,Pennsylvania,42077
-74.92115068,40.56079809,Hunterdon,New Jersey,34019
-72.89785376,40.91272559,Suffolk,New York,36103
-88.8684476,40.5001557,McLean,Illinois,17113
-74.62471554,40.55954152,Somerset,New Jersey,34035
-86.57538286,40.62676411,Carroll,Indiana,18015
-89.55778031,40.53229497,Tazewell,Illinois,17179
-78.3464111,40.49786412,Blair,Pennsylvania,42013
-87.31766386,40.660355,Benton,Indiana,18007
-102.3546698,40.56480733,Phillips,Colorado,08095
-78.03241115,40.4151939,Huntingdon,Pennsylvania,42061
-73.93018004,40.66996884,Kings,New York,36047
-78.732777,40.49248835,Cambria,Pennsylvania,42021
-74.28117483,40.65526391,Union,New Jersey,34039
-84.61792315,40.47815658,Mercer,Ohio,39107
-81.08603924,40.58000326,Carroll,Ohio,39019
-90.18639851,40.45201969,Fulton,Illinois,17057
-82.79912984,40.53921035,Morrow,Ohio,39117
-83.18592886,40.58419803,Marion,Ohio,39101
-97.13515815,40.43501969,Saline,Nebraska,31151
-98.4974828,40.51478114,Adams,Nebraska,31001
-98.04481883,40.5216381,Clay,Nebraska,31035
-97.59077657,40.52214541,Fillmore,Nebraska,31059
-77.55631441,40.45070576,Juniata,Pennsylvania,42067
-101.0567487,40.52029818,Hayes,Nebraska,31085
-101.6940691,40.56419854,Chase,Nebraska,31029
-100.3749616,40.56804134,Frontier,Nebraska,31063
-99.80877706,40.5621658,Gosper,Nebraska,31073
-84.21547255,40.50507673,Auglaize,Ohio,39011
-98.94775573,40.49752414,Kearney,Nebraska,31099
-111.1064479,40.28721775,Wasatch,Utah,49051
-99.40580785,40.49638047,Phelps,Nebraska,31137
-75.9310547,40.40375994,Berks,Pennsylvania,42011
-79.38681578,40.3626192,Westmoreland,Pennsylvania,42129
-80.02246941,40.45249638,Allegheny,Pennsylvania,42003
-85.65710995,40.49582207,Grant,Indiana,18053
-81.91823587,40.51195129,Holmes,Ohio,39075
-76.83545964,40.40062228,Dauphin,Pennsylvania,42043
-81.48612057,40.43720709,Tuscarawas,Ohio,39157
-74.14961182,40.57322436,Richmond,New York,36085
-91.14776726,40.42516335,Hancock,Illinois,17067
-90.68461683,40.45716704,McDonough,Illinois,17109
-77.26055212,40.41532822,Perry,Pennsylvania,42099
-80.57653171,40.52183376,Hancock,West Virginia,54029
-75.13083855,40.32390473,Bucks,Pennsylvania,42017
-91.74002217,40.42262798,Clark,Missouri,29045
-92.1544432,40.47259957,Scotland,Missouri,29199
-92.53422427,40.4557768,Schuyler,Missouri,29197
-74.40745751,40.41919333,Middlesex,New Jersey,34023
-80.74043293,40.38097013,Jefferson,Ohio,39081
-85.32289331,40.4900845,Blackford,Indiana,18009
-93.04047843,40.45577666,Putnam,Missouri,29171
-95.42405475,40.43650402,Atchison,Missouri,29005
-84.99561067,40.49008501,Jay,Indiana,18075
-111.7000695,40.18954886,Utah,Utah,49049
-94.89898512,40.32868547,Nodaway,Missouri,29147
-93.57130137,40.4276355,Mercer,Missouri,29129
-86.11987258,40.50666914,Howard,Indiana,18067
-93.99702835,40.32488232,Harrison,Missouri,29081
-86.90088049,40.41224647,Tippecanoe,Indiana,18157
-94.43944309,40.52271383,Worth,Missouri,29227
-82.40922439,40.40066601,Knox,Ohio,39083
-95.86293161,40.44086469,Nemaha,Nebraska,31127
-76.48803759,40.41733032,Lebanon,Pennsylvania,42075
-83.76719983,40.37547547,Logan,Ohio,39091
-96.68107566,40.30115221,Gage,Nebraska,31067
-96.25721513,40.39532507,Johnson,Nebraska,31097
-103.7979948,40.21268798,Morgan,Colorado,08087
-83.38983148,40.34546995,Union,Ohio,39159
-87.74092711,40.19925847,Vermilion,Illinois,17183
-87.39892347,40.30319604,Warren,Indiana,18171
-84.21702403,40.31192771,Shelby,Ohio,39149
-80.23606373,40.21166326,Washington,Pennsylvania,42125
-106.1384639,40.06895946,Grand,Colorado,08049
-81.89881568,40.29584814,Coshocton,Ohio,39031
-122.2072298,40.12429251,Tehama,California,06103
-74.21228383,40.25893815,Monmouth,New Jersey,34025
-120.8021406,40.03037884,Plumas,California,06063
-82.99447136,40.3107843,Delaware,Ohio,39041
-75.36922384,40.21122745,Montgomery,Pennsylvania,42091
-89.86686435,40.24801322,Mason,Illinois,17125
-86.47235739,40.30431873,Clinton,Indiana,18023
-102.4212284,40.16966936,Yuma,Colorado,08125
-103.126194,40.16716226,Washington,Colorado,08121
-81.09816126,40.25377775,Harrison,Ohio,39067
-74.68239322,40.27284596,Mercer,New Jersey,34021
-86.05372669,40.30526816,Tipton,Indiana,18159
-88.2053227,40.05836108,Champaign,Illinois,17019
-80.5671593,40.29137385,Brooke,West Virginia,54009
-85.72236372,40.15505333,Madison,Indiana,18095
-85.39630893,40.19926122,Delaware,Indiana,18035
-94.4187006,40.26254786,Gentry,Missouri,29075
-93.11700922,40.15137261,Sullivan,Missouri,29211
-87.26551182,40.1577537,Fountain,Indiana,18045
-84.61200628,40.10256079,Darke,Ohio,39037
-97.58988034,40.17148757,Thayer,Nebraska,31169
-97.13547966,40.17039629,Jefferson,Nebraska,31095
-92.60642914,40.17130637,Adair,Missouri,29001
-101.6859242,40.17223278,Dundy,Nebraska,31057
-98.94856591,40.1702868,Franklin,Nebraska,31061
-98.49435393,40.17023457,Webster,Nebraska,31181
-98.04171734,40.17086851,Nuckolls,Nebraska,31129
-101.0378505,40.17081546,Hitchcock,Nebraska,31087
-99.40181284,40.17125409,Harlan,Nebraska,31083
-99.90964989,40.17092693,Furnas,Nebraska,31065
-100.4720568,40.16972577,Red Willow,Nebraska,31145
-89.37919802,40.11575949,Logan,Illinois,17107
-78.48717311,40.02339679,Bedford,Pennsylvania,42009
-77.31973928,40.13533277,Cumberland,Pennsylvania,42041
-85.00690916,40.19926123,Randolph,Indiana,18135
-76.23406048,40.02775778,Lancaster,Pennsylvania,42071
-92.1535334,40.14940884,Knox,Missouri,29103
-77.70828171,40.00600842,Franklin,Pennsylvania,42055
-88.60942561,39.96996503,Piatt,Illinois,17147
-88.89438751,40.21446477,De Witt,Illinois,17039
-79.05303795,39.97740303,Somerset,Pennsylvania,42111
-90.63496255,40.13630281,Schuyler,Illinois,17169
-82.47624863,40.04629231,Licking,Ohio,39089
-83.75974123,40.14657711,Champaign,Ohio,39021
-95.23094478,40.06047799,Holt,Missouri,29087
-95.70500203,40.12358084,Richardson,Nebraska,31147
-96.22821516,40.12702549,Pawnee,Nebraska,31133
-93.57173912,40.08222582,Grundy,Missouri,29079
-105.3429419,40.09830615,Boulder,Colorado,08013
-91.73358681,40.10067359,Lewis,Missouri,29111
-75.71316886,39.99337492,Chester,Pennsylvania,42029
-86.05702912,40.06832531,Hamilton,Indiana,18057
-76.73915911,39.96843741,York,Pennsylvania,42133
-86.9040638,40.07528511,Montgomery,Indiana,18107
-108.1850925,39.95807667,Rio Blanco,Colorado,08103
-81.47200057,40.04707963,Guernsey,Ohio,39059
-91.1949321,39.9759536,Adams,Illinois,17001
-84.2244692,40.10832415,Miami,Ohio,39109
-80.62283638,40.09487726,Ohio,West Virginia,54069
-86.47732052,40.05913593,Boone,Indiana,18011
-74.67382649,39.83190887,Burlington,New Jersey,34005
-87.455359,39.87897851,Vermillion,Indiana,18165
-89.79133031,40.03687902,Menard,Illinois,17129
-80.98264167,40.00956993,Belmont,Ohio,39013
-74.29055316,39.81648502,Ocean,New Jersey,34029
-78.10817737,39.92120507,Fulton,Pennsylvania,42057
-81.95528863,40.04472484,Muskingum,Ohio,39119
-121.5857633,39.72582136,Butte,California,06007
-93.99025743,39.99673249,Daviess,Missouri,29061
-83.01156776,39.94977756,Franklin,Ohio,39049
-79.66467227,39.93419468,Fayette,Pennsylvania,42051
-75.15702342,39.99651234,Philadelphia,Pennsylvania,42101
-94.81371098,39.96793776,Andrew,Missouri,29003
-90.23882713,40.00498919,Cass,Illinois,17017
-114.9698612,39.2950583,White Pine,Nevada,32033
-83.40390356,39.85834149,Madison,Ohio,39097
-90.72619683,39.95093417,Brown,Illinois,17009
-107.5162257,39.75459089,Garfield,Colorado,08045
-85.39378258,39.91647827,Henry,Indiana,18065
-77.2286275,39.90874304,Adams,Pennsylvania,42001
-75.38937238,39.92876358,Delaware,Pennsylvania,42045
-88.98737437,39.86744993,Macon,Illinois,17115
-94.41510334,39.925707,DeKalb,Missouri,29063
-92.57510228,39.82574272,Macon,Missouri,29121
-83.78738607,39.94377544,Clark,Ohio,39023
-93.11414674,39.8341626,Linn,Missouri,29115
-80.66301559,39.88862418,Marshall,West Virginia,54051
-80.22553882,39.87070653,Greene,Pennsylvania,42059
-85.01513196,39.83299567,Wayne,Indiana,18177
-112.8743357,39.6134742,Juab,Utah,49023
-118.2741026,39.54150168,Churchill,Nevada,32001
-99.9033011,39.78057186,Norton,Kansas,20137
-99.34495331,39.77995312,Phillips,Kansas,20147
-101.0717599,39.78316055,Rawlins,Kansas,20153
-101.7287827,39.7838058,Cheyenne,Kansas,20023
-100.4583045,39.78269777,Decatur,Kansas,20039
-97.64506335,39.82356144,Republic,Kansas,20157
-95.11186489,39.80558722,Doniphan,Kansas,20043
-123.4232082,39.39224335,Mendocino,California,06045
-98.78402356,39.77934897,Smith,Kansas,20183
-98.21663175,39.82264386,Jewell,Kansas,20089
-97.0814262,39.82210932,Washington,Kansas,20201
-104.1579764,39.86248662,Adams,Colorado,08001
-96.01021252,39.81983457,Nemaha,Kansas,20131
-96.5195381,39.77849116,Marshall,Kansas,20117
-95.55601032,39.82018794,Brown,Kansas,20013
-74.9983816,39.79650517,Camden,New Jersey,34007
-89.67535097,39.75620414,Sangamon,Illinois,17167
-93.56936955,39.86894255,Livingston,Missouri,29117
-87.20212328,39.77962147,Parke,Indiana,18121
-92.07175195,39.80660747,Shelby,Missouri,29205
-85.78128102,39.83543334,Hancock,Indiana,18059
-91.63247902,39.83345663,Marion,Missouri,29127
-81.50487236,39.79380453,Noble,Ohio,39121
-86.15036665,39.79006728,Marion,Indiana,18097
-82.60588778,39.74024671,Fairfield,Ohio,39045
-86.51687079,39.7547925,Hendricks,Indiana,18063
-105.50105,39.82978413,Gilpin,Colorado,08047
-82.22024877,39.7315418,Perry,Ohio,39127
-84.28729554,39.71449333,Montgomery,Ohio,39113
-84.64403786,39.82523291,Preble,Ohio,39135
-106.0059935,39.63997147,Summit,Colorado,08117
-106.6385112,39.62098468,Eagle,Colorado,08037
-105.2340219,39.5130571,Jefferson,Colorado,08059
-87.75180254,39.64912488,Edgar,Illinois,17045
-88.22257627,39.73925979,Douglas,Illinois,17041
-75.1515736,39.69249347,Gloucester,New Jersey,34015
-90.17752245,39.68649495,Morgan,Illinois,17137
-86.86034884,39.75479398,Putnam,Indiana,18133
-81.06244181,39.69059313,Monroe,Ohio,39111
-83.88220162,39.64594363,Greene,Ohio,39057
-90.91829881,39.62197937,Pike,Illinois,17149
-105.6445717,39.7161798,Clear Creek,Colorado,08019
-75.67793307,39.51535762,New Castle,Delaware,10003
-89.28628857,39.5869505,Christian,Illinois,17021
-94.80955076,39.67345159,Buchanan,Missouri,29021
-110.5942407,39.62723462,Carbon,Utah,49007
-111.5213975,39.40816894,Sanpete,Utah,49039
-83.04936313,39.60090864,Pickaway,Ohio,39129
-104.9463957,39.75578319,Denver,Colorado,08031
-122.4289275,39.59199799,Glenn,California,06021
-88.644134,39.61699,Moultrie,Illinois,17139
-90.48189741,39.65582552,Scott,Illinois,17171
-85.47544899,39.60464006,Rush,Indiana,18139
-85.17380027,39.6167991,Fayette,Indiana,18041
-93.99151948,39.6755628,Caldwell,Missouri,29025
-75.32284418,39.59215124,Salem,New Jersey,34033
-120.497775,39.59254198,Sierra,California,06091
-81.81005885,39.6223207,Morgan,Ohio,39115
-94.41611039,39.63725538,Clinton,Missouri,29049
-119.1331437,39.03223187,Lyon,Nevada,32019
-84.92500131,39.6401632,Union,Indiana,18161
-104.2933611,39.64084016,Arapahoe,Colorado,08005
-74.69259887,39.50604444,Atlantic,New Jersey,34001
-77.72077266,39.52036956,Washington,Maryland,24043
-78.6100725,39.58131273,Allegany,Maryland,24001
-75.89797334,39.55625728,Cecil,Maryland,24015
-79.29293195,39.45596725,Garrett,Maryland,24023
-76.32635525,39.57505938,Harford,Maryland,24025
-79.9768429,39.57501949,Monongalia,West Virginia,54061
-79.69689137,39.46339169,Preston,West Virginia,54077
-77.00077322,39.51079331,Carroll,Maryland,24013
-76.63853515,39.45784307,Baltimore,Maryland,24005
-80.66224789,39.5719666,Wetzel,West Virginia,54103
-77.37168545,39.47043216,Frederick,Maryland,24021
-83.42005813,39.52837435,Fayette,Ohio,39047
-92.97169577,39.46359016,Chariton,Missouri,29041
-85.80451688,39.53903385,Shelby,Indiana,18145
-110.7042975,39.10015827,Emery,Utah,49015
-78.30853703,39.54102756,Morgan,West Virginia,54065
-88.22018798,39.56795835,Coles,Illinois,17029
-91.52615434,39.52854325,Ralls,Missouri,29173
-92.01355452,39.47582422,Monroe,Missouri,29137
-88.75228818,39.41386046,Shelby,Illinois,17173
-82.44660422,39.5075542,Hocking,Ohio,39073
-97.64171398,39.43314338,Cloud,Kansas,20029
-95.31686126,39.50908935,Atchison,Kansas,20005
-95.79540743,39.48583632,Jackson,Kansas,20085
-78.86963898,39.44291699,Mineral,West Virginia,54057
-81.5194009,39.42684746,Washington,Ohio,39167
-80.25750039,39.5105758,Marion,West Virginia,54049
-86.11220881,39.48472868,Johnson,Indiana,18081
-86.47499902,39.48602187,Morgan,Indiana,18109
-121.4220453,39.27493531,Yuba,California,06115
-119.5321536,39.44588763,Storey,Nevada,32029
-78.01426306,39.46735703,Berkeley,West Virginia,54003
-93.4493559,39.41167734,Carroll,Missouri,29033
-87.39722857,39.41402303,Vigo,Indiana,18167
-92.50790036,39.47811787,Randolph,Missouri,29175
-87.10365434,39.40206681,Clay,Indiana,18021
-80.82843699,39.45716789,Tyler,West Virginia,54095
-91.17610252,39.37556672,Pike,Missouri,29163
-84.1643173,39.41912464,Warren,Ohio,39165
-84.57559062,39.41274819,Butler,Ohio,39017
-122.7853864,39.1013162,Lake,California,06033
-83.78336847,39.45806064,Clinton,Ohio,39027
-102.5977533,39.34405945,Kit Carson,Colorado,08063
-101.7172836,39.34603724,Sherman,Kansas,20181
-101.0514394,39.34700513,Thomas,Kansas,20193
-100.4397564,39.34412777,Sheridan,Kansas,20179
-97.15580725,39.4352852,Clay,Kansas,20027
-75.11444757,39.34672605,Cumberland,New Jersey,34011
-103.4413314,39.0704197,Lincoln,Colorado,08073
-104.1842511,39.34084993,Elbert,Colorado,08039
-96.81180631,39.34641384,Riley,Kansas,20161
-105.780064,39.13176892,Park,Colorado,08093
-99.32194684,39.34345444,Rooks,Kansas,20163
-104.9151556,39.30847164,Douglas,Colorado,08035
-98.76450219,39.38532312,Osborne,Kansas,20141
-96.35188333,39.34641268,Pottawatomie,Kansas,20149
-99.88262276,39.34310967,Graham,Kansas,20065
-98.20491837,39.43026372,Mitchell,Kansas,20123
-82.07238841,39.35027935,Athens,Ohio,39009
-113.0246838,39.17267457,Millard,Utah,49027
-78.63847632,39.30554802,Hampshire,West Virginia,54027
-94.75805298,39.36038088,Platte,Missouri,29165
-89.42493752,39.2832142,Montgomery,Illinois,17135
-89.93127114,39.30632815,Macoupin,Illinois,17117
-93.99303191,39.33515449,Ray,Missouri,29177
-90.38388987,39.31091621,Greene,Illinois,17061
-109.5974553,39.00250035,Grand,Utah,49019
-85.05899591,39.37738457,Franklin,Indiana,18047
-121.0101034,39.25299833,Nevada,California,06057
-83.06668102,39.32479692,Ross,Ohio,39141
-77.87210277,39.30558605,Jefferson,West Virginia,54037
-87.81226034,39.3228732,Clark,Illinois,17023
-81.16248439,39.3703589,Pleasants,West Virginia,54073
-80.39972876,39.28875424,Harrison,West Virginia,54033
-86.88385023,39.2495191,Owen,Indiana,18119
-78.23236286,39.22854818,Frederick,Virginia,51069
-94.41515722,39.34381732,Clay,Missouri,29047
-80.74749037,39.26507421,Doddridge,West Virginia,54017
-80.05614023,39.34226186,Taylor,West Virginia,54091
-85.50358578,39.30583876,Decatur,Indiana,18031
-122.1947911,39.15914899,Colusa,California,06011
-95.37853723,39.31407161,Jefferson,Kansas,20087
-95.04145926,39.11721202,Leavenworth,Kansas,20103
-81.48611716,39.24012367,Wood,West Virginia,54107
-93.19081674,39.1865408,Saline,Missouri,29195
-90.6602317,39.13094206,Calhoun,Illinois,17013
-81.08651727,39.21975784,Ritchie,West Virginia,54085
-82.50889933,39.24578804,Vinton,Ohio,39163
-76.1153208,39.2233358,Kent,Maryland,24029
-88.24227273,39.29486236,Cumberland,Illinois,17035
-106.3283658,39.21459333,Lake,Colorado,08065
-83.60603914,39.20407706,Highland,Ohio,39071
-76.62206425,39.32326318,Baltimore City,Maryland,24510
-75.57387405,39.10740483,Kent,Delaware,10001
-76.88911631,39.22911733,Howard,Maryland,24027
-108.5850471,38.93223018,Mesa,Colorado,08077
-106.9218995,39.17415774,Pitkin,Colorado,08097
-77.23314689,39.13889627,Montgomery,Maryland,24031
-91.76582734,39.19538807,Audrain,Missouri,29007
-92.70303086,39.15190517,Howard,Missouri,29089
-85.89920533,39.23219079,Bartholomew,Indiana,18005
-86.24181045,39.19067747,Brown,Indiana,18013
-86.54223099,39.1067433,Monroe,Indiana,18105
-79.1864284,39.06970178,Grant,West Virginia,54023
-74.80698952,39.14224919,Cape May,New Jersey,34009
-77.66434397,39.09250529,Loudoun,Virginia,51107
-84.95378594,39.20335797,Dearborn,Indiana,18029
-120.7460838,39.01112346,Placer,California,06061
-84.5525947,39.15595145,Hamilton,Ohio,39061
-97.64315495,39.16960507,Ottawa,Kansas,20143
-85.28655457,39.0706819,Ripley,Indiana,18137
-121.7099551,39.03412101,Sutter,California,06101
-80.034659,39.12489898,Barbour,West Virginia,54001
-93.80716361,39.03871128,Lafayette,Missouri,29107
-75.98259669,39.10417077,Queen Anne's,Maryland,24035
-79.5836446,39.11186606,Tucker,West Virginia,54093
-77.97337399,39.12240388,Clarke,Virginia,51043
-84.16150879,38.9793057,Clermont,Ohio,39025
-119.7042434,39.17820265,Carson City,Nevada,32510
-87.42625234,39.07356151,Sullivan,Indiana,18153
-90.37295996,39.06970459,Jersey,Illinois,17083
-106.9693227,38.69655113,Gunnison,Colorado,08051
-92.34659086,38.94846204,Boone,Missouri,29019
-83.85918909,38.89793021,Brown,Ohio,39015
-78.82488848,38.99333354,Hardy,West Virginia,54031
-94.3642178,38.97892099,Jackson,Missouri,29095
-76.5772886,38.97094164,Anne Arundel,Maryland,24003
-90.9873494,39.04803449,Lincoln,Missouri,29113
-89.03754707,38.96275118,Fayette,Illinois,17051
-96.72500712,39.05173769,Geary,Kansas,20061
-95.71910098,38.95887571,Shawnee,Kansas,20177
-88.58748711,39.04615984,Effingham,Illinois,17049
-98.20358769,39.04174349,Lincoln,Kansas,20105
-107.7909088,38.96523785,Delta,Colorado,08029
-96.21677531,38.95027058,Wabaunsee,Kansas,20197
-78.17161434,39.16910116,Winchester,Virginia,51840
-82.6218143,38.98893892,Jackson,Ohio,39079
-82.06134694,39.03495746,Meigs,Ohio,39105
-94.75641844,39.07881331,Wyandotte,Kansas,20209
-85.62986886,38.99324328,Jennings,Indiana,18079
-83.08073112,39.106838,Pike,Ohio,39131
-87.76956087,39.02913129,Crawford,Illinois,17033
-88.1601187,39.04484999,Jasper,Illinois,17079
-81.4094881,39.04086152,Wirt,West Virginia,54105
-86.97694265,39.07811363,Greene,Indiana,18055
-80.49183352,38.94530497,Lewis,West Virginia,54041
-116.5202832,37.47591476,Nye,Nevada,32023
-91.45993052,38.92231572,Montgomery,Missouri,29139
-84.72623447,38.9687036,Boone,Kentucky,21015
-75.84102564,38.90063785,Caroline,Maryland,24011
-101.1436975,38.91217686,Logan,Kansas,20109
-99.87108715,38.90962653,Trego,Kansas,20195
-99.31139742,38.91051689,Ellis,Kansas,20051
-100.4808142,38.91054833,Gove,Kansas,20063
-76.83007912,38.84899025,Prince George's,Maryland,24033
-101.7623719,38.86583451,Wallace,Kansas,20199
-98.7557273,38.99155318,Russell,Kansas,20167
-97.13481414,38.86194166,Dickinson,Kansas,20041
-104.5525987,38.82735047,El Paso,Colorado,08041
-105.1707075,38.99528087,Teller,Colorado,08119
-79.83215971,38.75272743,Randolph,West Virginia,54083
-84.36837845,38.96325843,Campbell,Kentucky,21037
-80.23149415,38.90343027,Upshur,West Virginia,54097
-80.81548982,38.90872215,Gilmer,West Virginia,54021
-119.5738306,38.82000643,Douglas,Nevada,32005
-78.58454412,38.85258099,Shenandoah,Virginia,51171
-81.70137989,38.83847916,Jackson,West Virginia,54035
-84.53041732,38.92110726,Kenton,Kentucky,21117
-118.3797585,38.61566186,Mineral,Nevada,32021
-86.04709131,38.90135114,Jackson,Indiana,18071
-91.90870732,38.77680398,Callaway,Missouri,29027
-95.27453048,38.91019848,Douglas,Kansas,20045
-120.5158928,38.79464015,El Dorado,California,06017
-77.44269507,38.84474117,Fairfax,Virginia,51059
-92.80943857,38.80720682,Cooper,Missouri,29053
-106.18141,38.73049489,Chaffee,Colorado,08015
-83.48003235,38.85482306,Adams,Ohio,39001
-81.11662623,38.83509522,Calhoun,West Virginia,54013
-94.83201455,38.90566316,Johnson,Kansas,20091
-111.7603364,38.79435549,Sevier,Utah,49041
-78.1990113,38.90484572,Warren,Virginia,51187
-102.6049494,38.86051633,Cheyenne,Colorado,08017
-82.37160459,38.82170294,Gallia,Ohio,39053
-84.95047486,38.96337526,Ohio,Indiana,18115
-89.45471803,38.93416994,Bond,Illinois,17005
-82.00979483,38.7564408,Mason,West Virginia,54053
-82.9621493,38.7953868,Scioto,Ohio,39145
-77.80433347,38.7084434,Fauquier,Virginia,51061
-89.86199897,38.81553748,Madison,Illinois,17119
-91.19289195,38.77852016,Warren,Missouri,29219
-86.49244787,38.83815716,Lawrence,Indiana,18093
-77.00048897,38.90290565,District of Columbia,District of Columbia,11001
-90.73838082,38.74132496,St. Charles,Missouri,29183
-97.64479204,38.73184482,Saline,Kansas,20169
-75.3956415,38.72479517,Sussex,Delaware,10005
-79.34426369,38.67691607,Pendleton,West Virginia,54071
-76.10609386,38.74503333,Talbot,Maryland,24041
-81.35535259,38.74165713,Roane,West Virginia,54087
-93.28424417,38.81228665,Pettis,Missouri,29159
-77.44563073,38.72211844,Prince William,Virginia,51153
-93.81917031,38.74249188,Johnson,Missouri,29101
-77.1078493,38.87953881,Arlington,Virginia,51013
-85.01550546,38.81393633,Switzerland,Indiana,18155
-121.8587748,38.62917561,Yolo,California,06113
-119.8390591,38.6386845,Alpine,California,06003
-85.44949037,38.7781686,Jefferson,Indiana,18077
-92.63448917,38.64282229,Moniteau,Missouri,29135
-88.48220087,38.78640295,Clay,Illinois,17025
-87.43261906,38.66223825,Knox,Indiana,18083
-86.81536057,38.74481825,Martin,Indiana,18101
-87.10684548,38.69695706,Daviess,Indiana,18027
-80.74497874,38.69525294,Braxton,West Virginia,54007
-77.17665517,38.87950672,Falls Church,Virginia,51610
-90.50987768,38.64659725,St. Louis,Missouri,29189
-84.37277276,38.69325584,Pendleton,Kentucky,21191
-77.30647431,38.84970901,Fairfax City,Virginia,51600
-84.90182293,38.76664582,Gallatin,Kentucky,21077
-96.63743304,38.66464463,Morris,Kansas,20127
-95.72766146,38.55833346,Osage,Kansas,20139
-98.20408659,38.77335795,Ellsworth,Kansas,20053
-78.13543207,38.69190425,Rappahannock,Virginia,51157
-87.72160822,38.71134995,Lawrence,Illinois,17101
-88.10004655,38.7004971,Richland,Illinois,17159
-122.3190052,38.48910318,Napa,California,06055
-122.8776633,38.4964995,Sonoma,California,06097
-77.09116534,38.81829142,Alexandria,Virginia,51510
-78.92375565,38.56488518,Rockingham,Virginia,51165
-82.5616496,38.62611471,Lawrence,Ohio,39087
-94.36856729,38.61047941,Cass,Missouri,29037
-88.92366091,38.67638793,Marion,Illinois,17121
-85.75541723,38.68870833,Scott,Indiana,18143
-78.490016,38.62276291,Page,Virginia,51139
-84.08936211,38.67914299,Bracken,Kentucky,21023
-84.64914112,38.66758245,Grant,Kentucky,21081
-90.24500285,38.66458308,St. Louis City,Missouri,29510
-77.43818678,38.77546328,Manassas Park,Virginia,51685
-86.1050827,38.62812479,Washington,Indiana,18175
-77.48079057,38.75087204,Manassas,Virginia,51683
-76.59300544,38.5615091,Calvert,Maryland,24009
-85.11523202,38.67510242,Carroll,Kentucky,21041
-83.81306308,38.6045607,Mason,Kentucky,21161
-82.96081994,38.56447629,Greenup,Kentucky,21089
-89.42921366,38.58533905,Clinton,Illinois,17027
-80.43660825,38.46411017,Webster,West Virginia,54101
-85.32881515,38.61192614,Trimble,Kentucky,21223
-121.2670758,38.41643616,Sacramento,California,06067
-94.83644675,38.60268259,Miami,Kansas,20121
-92.24142262,38.53024736,Cole,Missouri,29051
-80.00008128,38.37150271,Pocahontas,West Virginia,54075
-96.14908534,38.47271873,Lyon,Kansas,20111
-95.28248037,38.55777942,Franklin,Kansas,20059
-84.84815155,38.52889949,Owen,Kentucky,21187
-83.39807418,38.52678227,Lewis,Kentucky,21135
-91.51261539,38.54779942,Gasconade,Missouri,29073
-91.83825685,38.49119289,Osage,Missouri,29151
-77.02598777,38.50204092,Charles,Maryland,24017
-119.024372,38.0828703,Mono,California,06051
-91.05513668,38.44020017,Franklin,Missouri,29071
-76.0513321,38.48342456,Dorchester,Maryland,24019
-77.98025552,38.48712773,Culpeper,Virginia,51047
-120.7371437,38.45394321,Amador,California,06005
-100.8980832,38.4756958,Scott,Kansas,20171
-92.88392075,38.48173893,Morgan,Missouri,29141
-101.3408454,38.47506333,Wichita,Kansas,20203
-100.4589828,38.47478457,Lane,Kansas,20101
-99.91187386,38.51364023,Ness,Kansas,20135
-101.8042559,38.43942149,Greeley,Kansas,20071
-105.4551332,38.47708911,Fremont,Colorado,08043
-99.30380281,38.51638584,Rush,Kansas,20165
-98.75146346,38.42935616,Barton,Kansas,20009
-86.50478205,38.6036716,Orange,Indiana,18117
-81.89235221,38.48090422,Putnam,West Virginia,54079
-114.9654324,37.82164241,Lincoln,Nevada,32017
-108.2762952,38.41597062,Montrose,Colorado,08085
-81.07152694,38.44443138,Clay,West Virginia,54015
-89.95847746,38.47285296,St. Clair,Illinois,17163
-81.52447621,38.28790483,Kanawha,West Virginia,54039
-78.27960094,38.43254985,Madison,Virginia,51113
-102.7694856,38.38524312,Kiowa,Colorado,08061
-88.42890348,38.366944,Wayne,Illinois,17191
-85.80944098,38.42840053,Clark,Indiana,18019
-97.64368163,38.3431683,McPherson,Kansas,20113
-84.07280925,38.51201838,Robertson,Kentucky,21201
-85.16189378,38.46432263,Henry,Kentucky,21103
-97.09448568,38.33976301,Marion,Kansas,20115
-77.48040358,38.42413635,Stafford,Virginia,51179
-82.25457751,38.41715243,Cabell,West Virginia,54011
-79.5203168,38.38642136,Highland,Virginia,51091
-84.32785445,38.42538541,Harrison,Kentucky,21097
-113.2015451,38.34733568,Beaver,Utah,49001
-88.05842156,38.41297365,Edwards,Illinois,17047
-87.86263962,38.40957259,Wabash,Illinois,17185
-93.79795278,38.33077807,Henry,Missouri,29083
-80.82700922,38.31014124,Nicholas,West Virginia,54067
-75.58901003,38.40935415,Wicomico,Maryland,24045
-87.2477442,38.40911779,Pike,Indiana,18125
-93.29833021,38.38769041,Benton,Missouri,29015
-85.48211418,38.42186352,Oldham,Kentucky,21185
-83.69226113,38.35699112,Fleming,Kentucky,21069
-87.5793182,38.33470306,Gibson,Indiana,18051
-86.88354503,38.32538588,Dubois,Indiana,18037
-90.14154272,38.29717981,Monroe,Illinois,17133
-104.5493545,38.02386148,Pueblo,Colorado,08101
-96.59366475,38.25156219,Chase,Kansas,20017
-98.2004393,38.38290988,Rice,Kansas,20159
-103.7699196,38.3819002,Crowley,Colorado,08025
-76.64144653,38.31293982,St. Mary's,Maryland,24037
-89.43023994,38.31901667,Washington,Illinois,17189
-83.0170368,38.34501149,Carter,Kentucky,21043
-110.9005918,38.32862461,Wayne,Utah,49055
-112.0929947,38.32016719,Piute,Utah,49031
-120.6561111,38.13604541,Calaveras,California,06009
-82.69837129,38.37560535,Boyd,Kentucky,21019
-90.5669517,38.27898324,Jefferson,Missouri,29099
-109.7451158,37.74387257,San Juan,Utah,49037
-84.60183714,38.31260131,Scott,Kentucky,21209
-79.12270855,38.19442483,Augusta,Virginia,51015
-88.92638212,38.36694397,Jefferson,Illinois,17081
-78.48588901,38.32426624,Greene,Virginia,51079
-94.34722271,38.30308111,Bates,Missouri,29013
-78.870619,38.431514,Harrisonburg,Virginia,51660
-106.3202672,38.06876159,Saguache,Colorado,08109
-84.00113082,38.31793632,Nicholas,Kentucky,21181
-117.6420775,37.67151425,Esmeralda,Nevada,32009
-75.41114732,38.22106543,Worcester,Maryland,24047
-119.8772882,38.04388924,Tuolumne,California,06109
-95.73223142,38.2085209,Coffey,Kansas,20031
-92.4479038,38.2545528,Miller,Missouri,29131
-86.42944882,38.25816185,Crawford,Indiana,18025
-86.13661546,38.2016441,Harrison,Indiana,18061
-82.45122744,38.13584534,Wayne,West Virginia,54099
-85.89897437,38.2925131,Floyd,Indiana,18043
-77.99266124,38.25945598,Orange,Virginia,51137
-83.43929841,38.20974926,Rowan,Kentucky,21205
-94.84461031,38.15453704,Linn,Kansas,20107
-95.29164784,38.14249498,Anderson,Kansas,20003
-85.65383512,38.20928189,Jefferson,Kentucky,21111
-77.66412039,38.18219884,Spotsylvania,Virginia,51177
-77.19704598,38.25668895,King George,Virginia,51099
-82.07829678,38.16334081,Lincoln,West Virginia,54043
-84.87737021,38.21510653,Franklin,Kentucky,21073
-84.23058747,38.21604783,Bourbon,Kentucky,21017
-85.22166492,38.19609708,Shelby,Kentucky,21211
-99.23866695,38.16319194,Pawnee,Kansas,20145
-107.758621,38.12149377,Ouray,Colorado,08091
-122.7348811,38.05803927,Marin,California,06041
-77.46761233,38.28167551,Fredericksburg,Virginia,51630
-83.77878556,38.15262333,Bath,Kentucky,21011
-121.240067,37.90529368,San Joaquin,California,06077
-75.6914863,38.12683278,Somerset,Maryland,24039
-91.91194368,38.105471,Maries,Missouri,29125
-76.84887248,38.13184247,Westmoreland,Virginia,51193
-78.5738246,37.92479519,Albemarle,Virginia,51003
-82.75669426,38.07321318,Lawrence,Kentucky,21127
-83.06930069,38.12941837,Elliott,Kentucky,21063
-79.73708884,38.05636377,Bath,Virginia,51017
-80.40964008,37.97047574,Greenbrier,West Virginia,54025
-92.792814,38.03003938,Camden,Missouri,29029
-81.09102048,38.04556568,Fayette,West Virginia,54019
-102.3837627,38.03631116,Prowers,Colorado,08099
-86.62905015,38.05540384,Perry,Indiana,18123
-103.0559129,38.0373584,Bent,Colorado,08011
-88.17323127,38.08287289,White,Illinois,17193
-88.5421392,38.0216427,Hamilton,Illinois,17065
-101.7916677,38.03913321,Hamilton,Kansas,20075
-101.3179974,38.03986877,Kearny,Kansas,20093
-103.7219589,37.91662623,Otero,Colorado,08089
-105.3429343,38.06876058,Custer,Colorado,08027
-100.8737945,37.90877542,Finney,Kansas,20055
-98.69069425,38.08396254,Stafford,Kansas,20185
-99.89510273,38.16230292,Hodgeman,Kansas,20083
-77.36654991,38.01478797,Caroline,Virginia,51033
-87.29037744,38.06196695,Warrick,Indiana,18173
-87.8671616,37.99169154,Posey,Indiana,18129
-81.7109862,38.00398955,Boone,West Virginia,54005
-89.84116908,38.01279106,Randolph,Illinois,17157
-93.79276613,37.97571675,St. Clair,Missouri,29185
-89.36609238,38.07027463,Perry,Illinois,17145
-91.32009216,37.97098509,Crawford,Missouri,29055
-84.47793711,38.04350069,Fayette,Kentucky,21067
-90.87603811,37.90989434,Washington,Missouri,29221
-87.01314483,37.99284714,Spencer,Indiana,18147
-86.25637614,37.99735942,Meade,Kentucky,21163
-83.94142341,38.06932463,Montgomery,Kentucky,21173
-84.7544939,38.01573284,Woodford,Kentucky,21239
-79.07849528,38.14756883,Staunton,Virginia,51790
-87.58268727,38.00534822,Vanderburgh,Indiana,18163
-97.42313851,37.99572266,Harvey,Kansas,20079
-98.08424457,38.03134214,Reno,Kansas,20155
-96.23644312,37.88235514,Greenwood,Kansas,20073
-76.96956707,37.95982808,Essex,Virginia,51057
-121.8934655,38.30712107,Solano,California,06095
-91.78243731,37.89913183,Phelps,Missouri,29161
-85.30819254,38.04445888,Spencer,Kentucky,21215
-108.4099457,37.97157698,San Miguel,Colorado,08113
-77.92835828,37.93104841,Louisa,Virginia,51109
-111.5013262,37.8344893,Garfield,Utah,49017
-107.3047916,37.79193284,Hinsdale,Colorado,08053
-113.3129772,37.83984585,Iron,Utah,49021
-88.92567428,38.01931659,Franklin,Illinois,17055
-84.9997608,38.00079167,Anderson,Kentucky,21005
-90.20116685,37.89600323,Ste. Genevieve,Missouri,29186
-83.22273775,37.92551076,Morgan,Kentucky,21175
-85.72050613,37.96879607,Bullitt,Kentucky,21029
-84.1700007,37.98136161,Clark,Kentucky,21049
-76.73934785,37.95504607,Richmond,Virginia,51159
-121.9573572,37.90445942,Contra Costa,California,06013
-78.888223,38.06289901,Waynesboro,Virginia,51820
-96.83106709,37.75694095,Butler,Kansas,20015
-79.39111029,37.83335797,Rockbridge,Virginia,51163
-90.50936011,37.80763935,St. Francois,Missouri,29187
-120.975882,37.55038074,Stanislaus,California,06099
-99.28882836,37.86105374,Edwards,Kansas,20047
-93.29328552,37.98797071,Hickory,Missouri,29085
-78.48899673,38.03470246,Charlottesville,Virginia,51540
-83.62014253,37.93887004,Menifee,Kentucky,21165
-94.34742208,37.78783756,Vernon,Missouri,29217
-86.42991373,37.82465449,Breckinridge,Kentucky,21027
-78.88971778,37.78577889,Nelson,Virginia,51125
-95.73413326,37.92543717,Woodson,Kansas,20207
-95.29376786,37.92309228,Allen,Kansas,20001
-94.84740902,37.87911512,Bourbon,Kansas,20011
-75.68360271,37.750942,Accomack,Virginia,51001
-76.39915888,37.87094101,Northumberland,Virginia,51133
-81.94001746,37.83041539,Logan,West Virginia,54045
-92.21945714,37.82376116,Pulaski,Missouri,29169
-85.97472506,37.6888986,Hardin,Kentucky,21093
-77.55840417,37.77601957,Hanover,Virginia,51085
-78.27200453,37.85072263,Fluvanna,Virginia,51065
-105.0004207,37.66234014,Huerfano,Colorado,08055
-82.83344091,37.84742651,Johnson,Kentucky,21115
-84.58456954,37.88001098,Jessamine,Kentucky,21113
-100.42637,37.60297089,Gray,Kansas,20069
-86.76059688,37.81266759,Hancock,Kentucky,21091
-85.53241271,37.76316876,Nelson,Kentucky,21179
-81.16989602,37.75452576,Raleigh,West Virginia,54081
-82.20918667,37.74222665,Mingo,West Virginia,54059
-76.85564948,37.6958756,King and Queen,Virginia,51097
-87.58671433,37.8097383,Henderson,Kentucky,21101
-107.6421311,37.79141543,San Juan,Colorado,08111
-84.870377,37.82274794,Mercer,Kentucky,21167
-106.9173426,37.75041638,Mineral,Colorado,08079
-82.53551167,37.8245571,Martin,Kentucky,21159
-80.1173355,37.78322125,Alleghany,Virginia,51005
-89.41278948,37.764763,Jackson,Illinois,17077
-83.81631254,37.82824014,Powell,Kentucky,21197
-87.09012825,37.7419527,Daviess,Kentucky,21059
-88.2155494,37.77058658,Gallatin,Illinois,17059
-84.29400782,37.70625337,Madison,Kentucky,21151
-88.54418419,37.73812208,Saline,Illinois,17165
-77.12136748,37.71444983,King William,Virginia,51101
-99.88089894,37.60043486,Ford,Kansas,20057
-97.47244563,37.59872331,Sedgwick,Kansas,20173
-85.19144335,37.76709838,Washington,Kentucky,21229
-77.94509777,37.72463639,Goochland,Virginia,51075
-89.85046059,37.72583097,Perry,Missouri,29157
-87.9503221,37.69001109,Union,Kentucky,21225
-108.4565843,37.73945954,Dolores,Colorado,08033
-93.01650883,37.60663483,Dallas,Missouri,29059
-121.8497193,37.62594664,Alameda,California,06001
-119.9491538,37.52521945,Mariposa,California,06043
-93.84926526,37.69209475,Cedar,Missouri,29039
-83.09767334,37.68700916,Magoffin,Kentucky,21153
-92.59025619,37.68079663,Laclede,Missouri,29105
-88.93268371,37.73548749,Williamson,Illinois,17199
-80.86281064,37.65884058,Summers,West Virginia,54089
-83.50279463,37.75249695,Wolfe,Kentucky,21237
-83.94806316,37.69124888,Estill,Kentucky,21065
-76.46171351,37.72759072,Lancaster,Virginia,51103
-106.3714323,37.52443447,Rio Grande,Colorado,08105
-84.55296206,37.64852158,Garrard,Kentucky,21079
-93.39989379,37.65059586,Polk,Missouri,29167
-98.73136186,37.59582073,Pratt,Kansas,20151
-79.15011999,37.5801717,Amherst,Virginia,51009
-122.4317642,37.75408276,San Francisco,California,06075
-79.98968781,37.78756129,Covington,Virginia,51580
-103.9036831,37.40222454,Las Animas,Colorado,08071
-79.44896257,37.78547304,Lexington,Virginia,51678
-81.57220256,37.60256709,Wyoming,West Virginia,54109
-79.76605687,37.56518624,Botetourt,Virginia,51023
-78.5669278,37.57431338,Buckingham,Virginia,51029
-91.49207143,37.6475208,Dent,Missouri,29065
-76.63907867,37.64975907,Middlesex,Virginia,51119
-119.6335264,37.25123857,Madera,California,06039
-82.75854974,37.52132997,Floyd,Kentucky,21071
-82.31809556,37.4753563,Pike,Kentucky,21195
-78.22113536,37.5442828,Cumberland,Virginia,51049
-79.35696211,37.72836383,Buena Vista,Virginia,51530
-90.66665433,37.48013816,Iron,Missouri,29093
-105.8117065,37.4747344,Alamosa,Colorado,08003
-86.88005423,37.46632996,Ohio,Kentucky,21183
-101.7818189,37.51584132,Stanton,Kansas,20187
-100.8643463,37.6016255,Haskell,Kansas,20081
-101.3020473,37.56074824,Grant,Kansas,20067
-85.73002772,37.57031479,Larue,Kentucky,21123
-99.27973674,37.59761477,Kiowa,Kansas,20097
-95.74199147,37.49151987,Wilson,Kansas,20205
-95.30437294,37.52927039,Neosho,Kansas,20133
-85.27678501,37.5960596,Marion,Kentucky,21155
-98.12874409,37.59533124,Kingman,Kansas,20095
-80.54846396,37.55148896,Monroe,West Virginia,54063
-83.72222645,37.57728522,Lee,Kentucky,21129
-84.85757138,37.62577796,Boyle,Kentucky,21021
-77.30336422,37.52411794,Henrico,Virginia,51087
-122.2934327,37.38840261,San Mateo,California,06081
-83.33854637,37.51502179,Breathitt,Kentucky,21025
-77.92018141,37.52530932,Powhatan,Virginia,51145
-87.216092,37.54638541,McLean,Kentucky,21149
-94.85123666,37.51581304,Crawford,Kansas,20037
-80.18405743,37.48363992,Craig,Virginia,51045
-87.65655463,37.52773518,Webster,Kentucky,21233
-94.35204058,37.47224868,Barton,Missouri,29011
-90.35234074,37.45433383,Madison,Missouri,29123
-102.5588213,37.18962909,Baca,Colorado,08009
-105.4357679,37.3047446,Costilla,Colorado,08023
-84.66839717,37.45195422,Lincoln,Kentucky,21137
-108.6334024,37.29251727,Montezuma,Colorado,08083
-107.847804,37.29251842,La Plata,Colorado,08067
-76.98021237,37.49806824,New Kent,Virginia,51127
-120.6020595,37.17379947,Merced,California,06047
-86.35499529,37.47018127,Grayson,Kentucky,21085
-79.69026731,37.31909075,Bedford,Virginia,51019
-113.4721762,37.23068864,Washington,Utah,49053
-88.24838093,37.49367973,Hardin,Illinois,17069
-77.4568099,37.51772619,Richmond City,Virginia,51760
-88.59430556,37.31895573,Pope,Illinois,17151
-91.95650882,37.33961483,Texas,Missouri,29215
-89.26117109,37.47250454,Union,Illinois,17181
-88.88089458,37.47217767,Johnson,Illinois,17087
-90.96694848,37.34288227,Reynolds,Missouri,29179
-96.23638377,37.42753274,Elk,Kansas,20049
-90.00822605,37.45561269,Bollinger,Missouri,29017
-89.6495511,37.38341721,Cape Girardeau,Missouri,29031
-76.58609461,37.42405995,Gloucester,Virginia,51073
-81.06943733,37.41700043,Mercer,West Virginia,54055
-93.85541233,37.49884095,Dade,Missouri,29057
-84.00563845,37.41398867,Jackson,Kentucky,21109
-119.6256797,36.74667152,Fresno,California,06019
-87.58403592,37.33868024,Hopkins,Kentucky,21107
-77.63081302,37.38780391,Chesterfield,Virginia,51041
-78.79113092,37.36218807,Appomattox,Virginia,51011
-75.95267694,37.33822425,Northampton,Virginia,51131
-84.94570059,37.33447642,Casey,Kentucky,21045
-81.62337317,37.39362172,McDowell,West Virginia,54047
-88.10129849,37.30157375,Crittenden,Kentucky,21055
-111.8898977,37.23480798,Kane,Utah,49025
-83.68598828,37.3902204,Owsley,Kentucky,21189
-84.32489506,37.34836553,Rockcastle,Kentucky,21203
-82.94041413,37.37037282,Knott,Kentucky,21119
-82.05122632,37.28633025,Buchanan,Virginia,51027
-76.33774912,37.42589338,Mathews,Virginia,51115
-78.03228028,37.34278131,Amelia,Virginia,51007
-77.0822658,37.36188768,Charles City,Virginia,51036
-92.88809571,37.34057239,Webster,Missouri,29225
-92.47439512,37.37125937,Wright,Missouri,29229
-121.7127829,37.18729626,Santa Clara,California,06085
-85.31334673,37.33064748,Taylor,Kentucky,21217
-80.67834073,37.31099889,Giles,Virginia,51071
-97.47112212,37.19176257,Sumner,Kansas,20191
-96.8276853,37.14912323,Cowley,Kansas,20035
-79.17719683,37.40916725,Lynchburg,Virginia,51680
-100.363165,37.18972579,Meade,Kansas,20119
-99.81737179,37.18795179,Clark,Kansas,20025
-85.56085932,37.28131424,Green,Kentucky,21087
-98.67366409,37.18855034,Barber,Kansas,20007
-76.79734924,37.30649578,James City,Virginia,51095
-117.4942666,36.61132911,Inyo,California,06027
-85.92369195,37.30823159,Hart,Kentucky,21099
-83.16496197,37.21538732,Perry,Kentucky,21193
-79.09931129,37.22787829,Campbell,Virginia,51031
-107.0524044,37.21657986,Archuleta,Colorado,08007
-93.34287032,37.1841212,Greene,Missouri,29077
-91.35286302,37.15331102,Shannon,Missouri,29203
-88.33102894,37.19307441,Livingston,Kentucky,21139
-87.13732029,37.23334109,Muhlenberg,Kentucky,21177
-80.10451483,37.25604993,Roanoke,Virginia,51161
-78.46348051,37.22743937,Prince Edward,Virginia,51147
-86.66745041,37.20533956,Butler,Kentucky,21031
-106.1654691,37.19070166,Conejos,Colorado,08021
-101.3114049,37.19299942,Stevens,Kansas,20189
-101.7965363,37.19148623,Morton,Kansas,20129
-100.8520467,37.19134466,Seward,Kansas,20175
-98.07534631,37.18937535,Harper,Kansas,20077
-95.7405458,37.14729184,Montgomery,Kansas,20125
-95.29721203,37.16854813,Labette,Kansas,20099
-99.27113826,37.18805632,Comanche,Kansas,20033
-87.87337897,37.16228056,Caldwell,Kentucky,21033
-76.52493992,37.22988083,York,Virginia,51199
-80.36986108,37.16743819,Montgomery,Virginia,51121
-94.34067682,37.17421947,Jasper,Missouri,29097
-84.60765063,37.11228363,Pulaski,Kentucky,21199
-83.75607017,37.15384849,Clay,Kentucky,21051
-79.51996393,37.32371538,Bedford City,Virginia,51515
-88.72320438,37.21035257,Massac,Illinois,17127
-89.3493996,37.15131011,Alexander,Illinois,17003
-81.59963465,37.13263309,Tazewell,Virginia,51185
-89.14702834,37.20096005,Pulaski,Illinois,17153
-94.84582537,37.19393991,Cherokee,Kansas,20021
-86.24253398,37.20455934,Edmonson,Kentucky,21061
-84.12272035,37.13453411,Laurel,Kentucky,21125
-77.26548604,37.13785629,Prince George,Virginia,51149
-79.95443961,37.27562982,Roanoke City,Virginia,51770
-77.29360982,37.30083141,Hopewell,Virginia,51670
-83.35901674,37.09624132,Leslie,Kentucky,21131
-80.05642566,37.30401345,Salem,Virginia,51775
-85.28046221,37.1344928,Adair,Kentucky,21001
-90.5035998,37.1138209,Wayne,Missouri,29223
-81.09198197,37.13316082,Bland,Virginia,51021
-82.35734326,37.13427373,Dickenson,Virginia,51051
-96.23709835,37.14707136,Chautauqua,Kansas,20019
-78.07029391,37.14241451,Nottoway,Virginia,51135
-77.40627307,37.26543958,Colonial Heights,Virginia,51570
-76.70063376,37.27438896,Williamsburg,Virginia,51830
-93.83801771,37.18966739,Lawrence,Missouri,29109
-122.0152769,37.07092381,Santa Cruz,California,06087
-77.65171213,37.06993805,Dinwiddie,Virginia,51053
-82.87654845,37.12232018,Letcher,Kentucky,21133
-89.57855337,37.05933261,Scott,Missouri,29201
-78.60778871,36.97539153,Charlotte,Virginia,51037
-76.91231817,37.10350919,Surry,Virginia,51181
-77.39778063,37.19995862,Petersburg,Virginia,51730
-80.72377094,37.05895819,Pulaski,Virginia,51155
-76.48838841,37.09633817,Newport News,Virginia,51700
-79.85845693,37.01858834,Franklin,Virginia,51067
-89.01504776,37.0787626,Ballard,Kentucky,21007
-88.73208166,37.09098781,McCracken,Kentucky,21145
-82.6180885,36.99310151,Wise,Virginia,51195
-86.41012183,36.97120714,Warren,Kentucky,21227
-85.03401367,37.02695096,Russell,Kentucky,21207
-88.08186119,37.02107613,Lyon,Kentucky,21143
-85.64193429,37.05755192,Metcalfe,Kentucky,21169
-76.35647751,37.13775838,Poquoson,Virginia,51735
-85.95253731,36.99364617,Barren,Kentucky,21009
-87.48371953,36.92755999,Christian,Kentucky,21047
-80.56276791,37.12893503,Radford,Virginia,51750
-76.70557559,36.88277203,Isle of Wight,Virginia,51093
-82.07252645,36.91724599,Russell,Virginia,51167
-89.97814578,36.88352052,Stoddard,Missouri,29207
-80.40171334,36.92097716,Floyd,Virginia,51063
-78.25002308,36.95379651,Lunenburg,Virginia,51111
-77.28769357,36.91415126,Sussex,Virginia,51183
-76.36582595,37.05832555,Hampton,Virginia,51650
-90.9634969,36.94680132,Carter,Missouri,29035
-93.12879894,36.90206637,Christian,Missouri,29043
-89.33328378,36.83079199,Mississippi,Missouri,29133
-87.18727913,36.85014278,Todd,Kentucky,21219
-86.8658149,36.87299635,Logan,Kentucky,21141
-81.06562918,36.92663251,Wythe,Virginia,51197
-92.50149697,36.93486059,Douglas,Missouri,29067
-88.34113312,36.90753254,Marshall,Kentucky,21157
-94.34595779,36.84694812,Newton,Missouri,29145
-91.903705,36.64058092,Howell,Missouri,29091
-83.85312454,36.89211327,Knox,Kentucky,21121
-78.91677252,36.78507467,Halifax,Virginia,51083
-77.84361626,36.84001753,Brunswick,Virginia,51025
-83.29421037,36.83342941,Harlan,Kentucky,21095
-81.52033263,36.83774574,Smyth,Virginia,51173
-87.91220906,36.81546779,Trigg,Kentucky,21221
-110.2888949,35.20272742,Navajo,Arizona,04017
-112.0309991,35.67774187,Coconino,Arizona,04005
-95.21706721,36.81273599,Craig,Oklahoma,40035
-95.62310567,36.77568874,Nowata,Oklahoma,40105
-94.81259854,36.85529054,Ottawa,Oklahoma,40115
-96.45108453,36.59043313,Osage,Oklahoma,40113
-97.10621983,36.89215918,Kay,Oklahoma,40071
-95.91083381,36.7766127,Washington,Oklahoma,40147
-103.5136095,36.35790758,Union,New Mexico,35059
-108.3362232,36.5160307,San Juan,New Mexico,35045
-106.7839557,36.43441277,Rio Arriba,New Mexico,35039
-98.32119858,36.79492703,Alfalfa,Oklahoma,40003
-97.78434311,36.79478214,Grant,Oklahoma,40053
-102.5160556,36.67100259,Cimarron,Oklahoma,40025
-98.78767791,36.67532292,Woods,Oklahoma,40151
-113.9834651,35.59809108,Mohave,Arizona,04015
-84.82188129,36.80060063,Wayne,Kentucky,21231
-100.4779851,36.79523013,Beaver,Oklahoma,40007
-101.4947633,36.67100302,Texas,Oklahoma,40139
-77.1029274,36.76976274,Southampton,Virginia,51175
-109.4414848,35.24394687,Apache,Arizona,04001
-99.64564192,36.70243278,Harper,Oklahoma,40059
-105.6239835,36.50825505,Taos,New Mexico,35055
-104.6732818,36.6008698,Colfax,New Mexico,35007
-93.45552143,36.6532487,Stone,Missouri,29209
-121.0187533,36.59219054,San Benito,California,06069
-84.16863397,36.77462157,Whitley,Kentucky,21235
-88.97006915,36.89626709,Carlisle,Kentucky,21039
-76.24962639,36.89077229,Norfolk,Virginia,51710
-84.4942437,36.77423691,McCreary,Kentucky,21147
-83.66041801,36.75869173,Bell,Kentucky,21013
-82.60333123,36.94529717,Norton,Virginia,51720
-88.65442526,36.629493,Graves,Kentucky,21083
-85.39729066,36.76311428,Cumberland,Kentucky,21057
-86.23174912,36.77943796,Allen,Kentucky,21003
-76.039316,36.749313,Virginia Beach,Virginia,51810
-80.74588452,36.75657826,Carroll,Virginia,51035
-93.83464587,36.62017238,Barry,Missouri,29009
-81.93725652,36.77158917,Washington,Virginia,51191
-90.39256332,36.69869482,Butler,Missouri,29023
-76.63553551,36.71917874,Suffolk,Virginia,51800
-121.5084158,36.39423932,Monterey,California,06053
-77.56858222,36.78510618,Greensville,Virginia,51081
-78.32551023,36.74183073,Mecklenburg,Virginia,51117
-82.97455945,36.74561416,Lee,Virginia,51105
-86.58123917,36.7613599,Simpson,Kentucky,21213
-82.58324096,36.7478788,Scott,Virginia,51169
-85.13395224,36.76645025,Clinton,Kentucky,21053
-91.40618138,36.64041404,Oregon,Missouri,29149
-80.26960097,36.71132967,Patrick,Virginia,51141
-89.67039608,36.59043132,New Madrid,Missouri,29143
-76.28631025,36.71619441,Chesapeake,Virginia,51550
-115.2691757,35.94963048,Clark,Nevada,32003
-79.98508374,36.69126277,Henry,Virginia,51089
-85.73257887,36.73012467,Monroe,Kentucky,21171
-76.34842632,36.80369108,Portsmouth,Virginia,51740
-90.86256503,36.63805224,Ripley,Missouri,29181
-93.04808365,36.64849472,Taney,Missouri,29213
-99.27373136,36.33514501,Woodward,Oklahoma,40153
-81.23539417,36.68101203,Grayson,Virginia,51077
-92.44859647,36.64452165,Ozark,Missouri,29153
-88.98811931,36.64938452,Hickman,Kentucky,21105
-94.34906282,36.58078355,McDonald,Missouri,29119
-88.27437024,36.63120251,Calloway,Kentucky,21035
-118.816942,36.26525313,Tulare,California,06107
-77.54068502,36.68535454,Emporia,Virginia,51595
-79.86522812,36.69126343,Martinsville,Virginia,51690
-80.92554392,36.65323042,Galax,Virginia,51640
-76.9296359,36.66842974,Franklin City,Virginia,51620
-87.82793667,36.51738528,Stewart,Tennessee,47161
-94.79777985,36.3253017,Delaware,Oklahoma,40041
-86.87861144,36.50823798,Robertson,Tennessee,47147
-86.46769896,36.44115504,Sumner,Tennessee,47165
-87.36696879,36.50085187,Montgomery,Tennessee,47125
-86.00305185,36.57745461,Macon,Tennessee,47111
-90.01116937,36.31296559,Dunklin,Missouri,29069
-85.53145748,36.51881059,Clay,Tennessee,47027
-85.1402263,36.52009989,Pickett,Tennessee,47137
-82.18374179,36.60772472,Bristol,Virginia,51520
-82.30699521,36.50634957,Sullivan,Tennessee,47163
-81.85446257,36.43168959,Johnson,Tennessee,47091
-97.24391405,36.42808665,Noble,Oklahoma,40103
-84.50270243,36.38027326,Scott,Tennessee,47151
-95.62276525,36.32974877,Rogers,Oklahoma,40131
-83.258414,36.48480078,Hancock,Tennessee,47067
-83.65806525,36.48543042,Claiborne,Tennessee,47025
-84.13796764,36.38809645,Campbell,Tennessee,47013
-99.79609118,36.3289286,Ellis,Oklahoma,40045
-97.77947669,36.31965842,Garfield,Oklahoma,40047
-82.94586481,36.41784531,Hawkins,Tennessee,47073
-81.49478137,36.4212521,Ashe,North Carolina,37009
-84.92334349,36.35204459,Fentress,Tennessee,47049
-81.13222009,36.47408756,Alleghany,North Carolina,37005
-80.69258411,36.38840684,Surry,North Carolina,37171
-89.06091545,36.57646775,Fulton,Kentucky,21075
-96.78549447,36.35661262,Pawnee,Oklahoma,40117
-75.93816398,36.30712443,Currituck,North Carolina,37053
-77.36957751,36.35226096,Northampton,North Carolina,37131
-77.04185693,36.39724208,Hertford,North Carolina,37091
-76.18254914,36.36264781,Camden,North Carolina,37029
-76.72166115,36.43591238,Gates,North Carolina,37073
-78.11313643,36.42695988,Warren,North Carolina,37185
-80.23436579,36.40119503,Stokes,North Carolina,37169
-79.3357219,36.39623433,Caswell,North Carolina,37033
-79.77236615,36.39776586,Rockingham,North Carolina,37157
-78.6593328,36.34667227,Granville,North Carolina,37077
-78.97651702,36.38882575,Person,North Carolina,37145
-78.40578329,36.37682769,Vance,North Carolina,37181
-85.30122847,36.36048452,Overton,Tennessee,47133
-85.66058084,36.36048448,Jackson,Tennessee,47087
-95.22221227,36.38713106,Mayes,Oklahoma,40097
-77.68434033,36.24810738,Halifax,North Carolina,37083
-98.52818867,36.28188501,Major,Oklahoma,40093
-76.31505673,36.3265064,Pasquotank,North Carolina,37139
-82.15568477,36.28986156,Carter,Tennessee,47019
-89.51035689,36.34031853,Lake,Tennessee,47095
-89.17692264,36.33826982,Obion,Tennessee,47131
-88.73674717,36.30810754,Weakley,Tennessee,47183
-88.30587543,36.30460066,Henry,Tennessee,47079
-86.11961784,36.40353183,Trousdale,Tennessee,47169
-100.2724836,36.27382747,Lipscomb,Texas,48295
-101.8936003,36.27248996,Sherman,Texas,48421
-90.40744514,36.34403196,Clay,Arkansas,05021
-102.5962557,36.273148,Dallam,Texas,48111
-101.3533858,36.27217472,Hansford,Texas,48195
-92.3084235,36.22878464,Baxter,Arkansas,05005
-91.80182601,36.41509113,Fulton,Arkansas,05049
-91.5171786,36.12610492,Sharp,Arkansas,05135
-91.00924922,36.31272654,Randolph,Arkansas,05121
-94.21732535,36.27243941,Benton,Arkansas,05007
-92.70381468,36.28278921,Marion,Arkansas,05089
-93.52564788,36.30608863,Carroll,Arkansas,05015
-93.08752081,36.26575693,Boone,Arkansas,05009
-100.815926,36.27311306,Ochiltree,Texas,48357
-119.8229016,36.05072533,Kings,California,06031
-87.07160463,36.25448862,Cheatham,Tennessee,47021
-82.4919022,36.26691497,Washington,Tennessee,47179
-83.82701566,36.29758492,Union,Tennessee,47173
-96.03160814,36.12789466,Tulsa,Oklahoma,40143
-81.16801161,36.21238364,Wilkes,North Carolina,37193
-89.80560759,36.20237437,Pemiscot,Missouri,29155
-85.97281195,36.26409374,Smith,Tennessee,47159
-83.5550161,36.25301863,Grainger,Tennessee,47057
-82.90493037,36.17124006,Greene,Tennessee,47059
-86.7722953,36.19291232,Davidson,Tennessee,47037
-81.70003364,36.25079632,Watauga,North Carolina,37189
-76.45160423,36.2240849,Perquimans,North Carolina,37143
-87.74097443,36.29090899,Houston,Tennessee,47083
-84.66023345,36.1416689,Morgan,Tennessee,47129
-88.09088406,36.06860532,Benton,Tennessee,47005
-86.32695911,36.19364294,Wilson,Tennessee,47189
-83.25758033,36.2333044,Hamblen,Tennessee,47063
-76.65161895,36.19847763,Chowan,North Carolina,37041
-87.35757577,36.13690694,Dickson,Tennessee,47043
-85.45606372,36.14924889,Putnam,Tennessee,47141
-93.69056537,36.0236888,Madison,Arkansas,05087
-84.22379027,36.1015575,Anderson,Tennessee,47001
-81.91907404,36.07943293,Avery,North Carolina,37011
-80.6589035,36.17153457,Yadkin,North Carolina,37197
-90.50920967,36.12799164,Greene,Arkansas,05055
-104.9317764,36.01948307,Mora,New Mexico,35033
-91.08860358,36.07359164,Lawrence,Arkansas,05075
-78.33024552,36.04492933,Franklin,North Carolina,37069
-91.89650635,36.08608741,Izard,Arkansas,05065
-82.46399247,36.10971414,Unicoi,Tennessee,47171
-80.25023522,36.11564001,Forsyth,North Carolina,37067
-96.98775894,36.08617071,Payne,Oklahoma,40119
-87.76729219,36.01846722,Humphreys,Tennessee,47085
-79.7823726,36.12130584,Guilford,North Carolina,37081
-79.40040562,35.97638757,Alamance,North Carolina,37001
-76.97438761,36.01668777,Bertie,North Carolina,37015
-94.23154057,35.96282793,Washington,Arkansas,05143
-79.13089495,35.97638753,Orange,North Carolina,37135
-78.86748036,36.04477484,Durham,North Carolina,37063
-88.94415308,36.00542985,Gibson,Tennessee,47053
-103.6619202,35.80330435,Harding,New Mexico,35021
-106.7693586,35.54326147,Sandoval,New Mexico,35043
-89.42212108,36.05445446,Dyer,Tennessee,47045
-77.98661608,35.93813669,Nash,North Carolina,37127
-83.90455742,35.99395343,Knox,Tennessee,47093
-83.45333646,36.04404813,Jefferson,Tennessee,47089
-83.09470306,35.93821567,Cocke,Tennessee,47029
-95.0377143,35.92695463,Cherokee,Oklahoma,40021
-96.32579065,35.90457304,Creek,Oklahoma,40037
-84.97267456,35.94864335,Cumberland,Tennessee,47035
-94.65634331,35.90558038,Adair,Oklahoma,40001
-97.94285979,36.03301259,Kingfisher,Oklahoma,40073
-97.40583358,35.8373966,Logan,Oklahoma,40083
-95.50948676,35.99426957,Wagoner,Oklahoma,40145
-98.41866095,35.84809247,Blaine,Oklahoma,40011
-99.01091302,35.94962114,Dewey,Oklahoma,40043
-88.45499709,35.95878197,Carroll,Tennessee,47017
-82.12241887,35.97583805,Mitchell,North Carolina,37121
-77.58001303,35.95151865,Edgecombe,North Carolina,37065
-85.82705193,35.98717668,DeKalb,Tennessee,47041
-93.21168912,35.93636145,Newton,Arkansas,05101
-92.67657173,35.88650364,Searcy,Arkansas,05129
-81.55644249,35.93672395,Caldwell,North Carolina,37027
-92.16751252,35.89789401,Stone,Arkansas,05137
-86.3863777,35.87356968,Rutherford,Tennessee,47149
-85.45160968,35.94864394,White,Tennessee,47185
-82.30049388,35.89136552,Yancey,North Carolina,37199
-77.19913004,35.85852293,Martin,North Carolina,37117
-78.61547641,35.79297231,Wake,North Carolina,37183
-100.8153767,35.84081126,Roberts,Texas,48393
-100.2710267,35.75458042,Hemphill,Texas,48211
-84.53248647,35.86055979,Roane,Tennessee,47145
-101.3548955,35.84009693,Hutchinson,Texas,48233
-102.5943845,35.89849415,Hartley,Texas,48205
-86.908014,35.87810745,Williamson,Tennessee,47187
-101.8929006,35.84005451,Moore,Texas,48341
-82.6739173,35.84320154,Madison,North Carolina,37115
-80.90074102,35.80406793,Iredell,North Carolina,37097
-80.53111394,35.91912464,Davie,North Carolina,37059
-83.50891689,35.79413196,Sevier,Tennessee,47155
-81.17924249,35.90265242,Alexander,North Carolina,37003
-80.25221086,35.75547573,Davidson,North Carolina,37057
-99.68730336,35.71672584,Roger Mills,Oklahoma,40129
-105.9742689,35.48206586,Santa Fe,New Mexico,35049
-108.1730556,35.67695188,McKinley,New Mexico,35031
-87.47428926,35.78978659,Hickman,Tennessee,47081
-90.11878188,35.70941876,Mississippi,Arkansas,05093
-89.16971814,35.83455722,Crockett,Tennessee,47033
-81.68410302,35.76580877,Burke,North Carolina,37023
-90.66177489,35.79791055,Craighead,Arkansas,05031
-106.3224458,35.89675692,Los Alamos,New Mexico,35028
-86.04902328,35.81661455,Cannon,Tennessee,47015
-76.58526915,35.83519898,Washington,North Carolina,37187
-76.23943784,35.77330586,Tyrrell,North Carolina,37177
-82.0415623,35.73981271,McDowell,North Carolina,37111
-89.64779442,35.75103321,Lauderdale,Tennessee,47097
-96.87798246,35.68297342,Lincoln,Oklahoma,40081
-91.57849561,35.73251533,Independence,Arkansas,05063
-79.80155665,35.67516074,Randolph,North Carolina,37151
-84.28982309,35.75724379,Loudon,Tennessee,47105
-91.20350534,35.58217414,Jackson,Arkansas,05067
-104.7483973,35.54666699,San Miguel,New Mexico,35047
-83.9036939,35.6727723,Blount,Tennessee,47009
-79.25567214,35.69317886,Chatham,North Carolina,37037
-95.41785656,35.60373436,Muskogee,Oklahoma,40101
-95.94611495,35.60331506,Okmulgee,Oklahoma,40111
-85.78643072,35.6885387,Warren,Tennessee,47177
-88.10612044,35.62420938,Decatur,Tennessee,47039
-87.06988575,35.6490946,Maury,Tennessee,47119
-77.94347677,35.71735961,Wilson,North Carolina,37195
-80.53289049,35.65964512,Rowan,North Carolina,37159
-87.85364525,35.63682671,Perry,Tennessee,47135
-84.90891555,35.6249726,Rhea,Tennessee,47143
-85.43882412,35.69377458,Van Buren,Tennessee,47175
-77.36012001,35.56800529,Pitt,North Carolina,37147
-88.39378765,35.62425,Henderson,Tennessee,47077
-81.20575903,35.65845866,Catawba,North Carolina,37035
-89.26840772,35.64354047,Haywood,Tennessee,47075
-82.5392248,35.61544549,Buncombe,North Carolina,37021
-78.37224156,35.55114882,Johnston,North Carolina,37101
-99.00303853,35.68485841,Custer,Oklahoma,40039
-118.7210883,35.30509967,Kern,California,06029
-116.1186906,34.85369778,San Bernardino,California,06071
-120.3391473,35.30510071,San Luis Obispo,California,06079
-88.83769573,35.60658339,Madison,Tennessee,47113
-92.51877242,35.63423957,Van Buren,Arkansas,05141
-82.96679601,35.54230217,Haywood,North Carolina,37087
-85.2671563,35.55894151,Bledsoe,Tennessee,47007
-93.86961312,35.49130384,Franklin,Arkansas,05047
-93.45624434,35.53406975,Johnson,Arkansas,05071
-75.87244236,35.76938381,Dare,North Carolina,37055
-94.24230127,35.55735815,Crawford,Arkansas,05033
-84.79802067,35.52442392,Meigs,Tennessee,47121
-103.5503684,35.16070543,Quay,New Mexico,35037
-76.76497835,35.47867474,Beaufort,North Carolina,37013
-93.06714611,35.39640065,Pope,Arkansas,05115
-97.987786,35.46763412,Canadian,Oklahoma,40017
-97.40436578,35.59658893,Oklahoma,Oklahoma,40109
-86.77866689,35.48532668,Marshall,Tennessee,47117
-92.01897215,35.49785393,Cleburne,Arkansas,05023
-86.05707744,35.5096475,Coffee,Tennessee,47031
-90.66284226,35.57746289,Poinsett,Arkansas,05111
-86.44510838,35.518596,Bedford,Tennessee,47003
-83.58307437,35.49182648,Swain,North Carolina,37173
-84.20304833,35.44193196,Monroe,Tennessee,47123
-87.48241617,35.54055872,Lewis,Tennessee,47101
-77.66610534,35.49452429,Greene,North Carolina,37079
-84.61633438,35.44620084,McMinn,Tennessee,47107
-96.35057939,35.51353708,Okfuskee,Oklahoma,40107
-94.74033203,35.45621632,Sequoyah,Oklahoma,40135
-89.75449216,35.5197528,Tipton,Tennessee,47167
-101.8904287,35.4036929,Potter,Texas,48375
-101.3557692,35.40352876,Carson,Texas,48065
-100.813544,35.40334405,Gray,Texas,48179
-100.2673043,35.30342862,Wheeler,Texas,48483
-102.5902697,35.40242321,Oldham,Texas,48359
-79.18950163,35.45776719,Lee,North Carolina,37105
-81.91316464,35.39110473,Rutherford,North Carolina,37161
-88.6081921,35.40847529,Chester,Tennessee,47023
-77.97820865,35.3833557,Wayne,North Carolina,37191
-78.84414038,35.36991026,Harnett,North Carolina,37085
-85.37118029,35.36793592,Sequatchie,Tennessee,47153
-81.56073021,35.38672015,Cleveland,North Carolina,37045
-95.65869867,35.35471367,McIntosh,Oklahoma,40091
-81.21848517,35.48026105,Lincoln,North Carolina,37109
-98.35242621,35.24417309,Caddo,Oklahoma,40015
-85.68872061,35.39390891,Grundy,Tennessee,47061
-112.434215,34.6314874,Yavapai,Arizona,04025
-91.74463855,35.28372981,White,Arkansas,05145
-83.1119227,35.24549501,Jackson,North Carolina,37099
-79.45712451,35.27199771,Moore,North Carolina,37125
-80.82749853,35.25742981,Mecklenburg,North Carolina,37119
-80.55392814,35.3629396,Cabarrus,North Carolina,37025
-99.67728025,35.30342864,Beckham,Oklahoma,40009
-79.89625018,35.32905165,Montgomery,North Carolina,37123
-80.24165505,35.32905092,Stanly,North Carolina,37167
-87.78170118,35.25030357,Wayne,Tennessee,47181
-82.47909415,35.35160217,Henderson,North Carolina,37089
-89.85703181,35.23365606,Shelby,Tennessee,47157
-98.98748505,35.29354245,Washita,Oklahoma,40149
-96.95753975,35.17725568,Pottawatomie,Oklahoma,40125
-95.13225348,35.24150497,Haskell,Oklahoma,40061
-85.15441687,35.22339376,Hamilton,Tennessee,47065
-92.67260594,35.27235809,Conway,Arkansas,05029
-87.39349119,35.23178882,Lawrence,Tennessee,47099
-87.01252211,35.23178882,Giles,Tennessee,47055
-83.81726184,35.34829113,Graham,North Carolina,37075
-96.60646668,35.20838622,Seminole,Oklahoma,40133
-94.22957922,35.17798817,Sebastian,Arkansas,05131
-90.76985589,35.25293684,Cross,Arkansas,05037
-91.23515215,35.17805762,Woodruff,Arkansas,05147
-90.23202165,35.14035032,Crittenden,Arkansas,05035
-88.99008826,35.12712638,Hardeman,Tennessee,47069
-88.1802522,35.16062817,Hardin,Tennessee,47071
-93.64992013,35.22470185,Logan,Arkansas,05083
-77.67740739,35.19962977,Lenoir,North Carolina,37107
-86.35065623,35.2885132,Moore,Tennessee,47127
-82.77218889,35.20691928,Transylvania,North Carolina,37175
-81.1772758,35.29287128,Gaston,North Carolina,37071
-89.41712421,35.13133468,Fayette,Tennessee,47047
-94.68164308,35.01006662,Le Flore,Oklahoma,40079
-82.17513632,35.29767223,Polk,North Carolina,37149
-88.58126537,35.12805597,McNairy,Tennessee,47109
-97.2841366,35.1539028,Cleveland,Oklahoma,40027
-86.59370828,35.17769952,Lincoln,Tennessee,47103
-97.87980381,35.0959877,Grady,Oklahoma,40051
-92.3148985,35.13309738,Faulkner,Arkansas,05045
-86.0802355,35.1832232,Franklin,Tennessee,47051
-84.8477146,35.18254585,Bradley,Tennessee,47011
-107.7884349,35.0945005,Cibola,New Mexico,35006
-97.53828669,35.11894145,McClain,Oklahoma,40087
-85.62867475,35.13853325,Marion,Tennessee,47115
-83.47205271,35.15250981,Macon,North Carolina,37113
-78.35597555,34.92583903,Sampson,North Carolina,37163
-95.79736122,34.90300154,Pittsburg,Oklahoma,40121
-76.79793658,35.14646605,Pamlico,North Carolina,37137
-93.39895274,35.02895813,Yell,Arkansas,05149
-96.28748069,34.99992141,Hughes,Oklahoma,40063
